Name,Review URL,District,District ID,Category ID,Category Name,Price UI,Address,Review Count,Smile,Cry,Overall Score,Bookmark Count,Latitude,longitude
Burgeroom,/en/hongkong/r-burgeroom-causeway-bay-american-hamburger-r189507/reviews,Causeway Bay,1019,"[4001, 1035, 1007]","[American, Hamburger, Fast Food]",$51-100,"Shop D, G/F, Food Street, 50-56 Paterson Street, Fashion Walk",846,684.0,47.0,3.8820870000000003,32152,22.2818512378,114.185185656
The Grill Room,/en/hongkong/r-the-grill-room-causeway-bay-western-r446983/reviews,Causeway Bay,1019,"[4000, 1003]","[Western, Steak House]",$201-400,"5/F, The L. Square, 459-461 Lockhart Road",585,459.0,24.0,3.79109,22423,22.280195499999998,114.18166699999999
Burger Joys,/en/hongkong/r-burger-joys-wan-chai-american-hamburger-r453663/reviews,Wan Chai,1022,"[4001, 1035]","[American, Hamburger]",$101-200,"Shop E, G/F, De Fenwick, 42-50 Lockhart Road",527,470.0,9.0,3.896518,11224,22.2780375,114.170584
Toretore Hamayaki 漁獲浜燒,/en/hongkong/r-toretore-hamayaki-causeway-bay-japanese-r454887/reviews,Causeway Bay,1019,[2009],[Japanese],$201-400,"18/F, Macau Yat Yuen Centre, 525 Hennessy Road",397,387.0,2.0,4.385204,13354,22.280330499999998,114.18376640000001
Sodam Chicken,/en/hongkong/r-sodam-chicken-causeway-bay-korean-korean-fried-chicken-r477924/reviews,Causeway Bay,1019,"[2001, 1085]","[Korean, Korean Fried Chicken]",$101-200,"7/F, 3 Yiu Wa Street, Bartlock Centre",503,398.0,16.0,3.816736,19147,22.2777035,114.18217849999999
Via Tokyo,/en/hongkong/r-via-tokyo-causeway-bay-japanese-ice-cream-yogurt-r143976/reviews,Causeway Bay,1019,"[2009, 1014, 1015]","[Japanese, Dessert, Ice Cream/yogurt]",Below $50,"Shop 1A-1B, G/F, Leishun Court, 106-126 Leighton Road",619,451.0,13.0,3.7799370000000003,32669,22.277867999999998,114.1864051
The Pudding Nouveau,/en/hongkong/r-the-pudding-nouveau-tai-hang-western-all-day-breakfast-r161294/reviews,Tai Hang,1025,"[3010, 1014, 1008, 4000, 1015, 1075]","[French, Dessert, Coffee Shop, Western, Ice Cream/yogurt, All Day Breakfast]",$101-200,"G/F, 17A King Street",595,493.0,19.0,3.806108,16501,22.2786575804,114.191927388
HeSheEat,/en/hongkong/r-hesheeat-causeway-bay-western-all-day-breakfast-r193159/reviews,Causeway Bay,1019,"[4000, 1014, 1008, 1075]","[Western, Dessert, Coffee Shop, All Day Breakfast]",$51-100,"Shop 201, 2/F, Causeway Bay, 2-10 Great George Street",574,422.0,28.0,3.79009,12710,22.280182,114.18523200000001
Mackie Kitchen 阿麥廚房,/en/hongkong/r-mackie-kitchen-causeway-bay-western-r21180/reviews,Causeway Bay,1019,"[4000, 1008, 11]","[Western, Coffee Shop, Casual Drink]",$101-200,"G/F, 9 Caroline Hill Road",451,373.0,21.0,3.8294980000000005,11000,22.277402,114.18680900000001
Tai Pai Tong Hong Kong 西餐大排檔,/en/hongkong/r-tai-pai-tong-hong-kong-causeway-bay-western-seafood-r457603/reviews,Causeway Bay,1019,"[4000, 1009, 1019]","[Western, Seafood, BBQ]",$201-400,"7/F, Jardine Center, 50 Jardine's Bazaar",526,500.0,6.0,4.114258,12607,22.279408,114.1856449
The Hwaduk,/en/hongkong/r-the-hwaduk-causeway-bay-korean-korean-fried-chicken-r481456/reviews,Causeway Bay,1019,"[2001, 1085]","[Korean, Korean Fried Chicken]",$101-200,"21/F, Cubus, 1 Hoi Ping Road",385,352.0,4.0,4.115343,11486,22.2775063,114.18502050000001
Little Vegas,/en/hongkong/r-little-vegas-causeway-bay-western-all-day-breakfast-r186385/reviews,Causeway Bay,1019,"[4000, 1022, 1075]","[Western, Pizza, All Day Breakfast]",$101-200,"25/F, Bartlock Centre, 3 Yiu Wa Street",416,325.0,12.0,3.8300669999999997,24347,22.2776673,114.18217620000001
Shika Teppan-Yaki 鉄人旨花,/en/hongkong/r-shika-teppan-yaki-causeway-bay-japanese-omakase-r183611/reviews,Causeway Bay,1019,"[2009, 1024, 1034, 1205]","[Japanese, Teppanyaki, Sushi/Sashimi, Omakase]",Above $801,"2/F, Shining building, 477-481 Jaffe Road",489,460.0,8.0,4.1734919999999995,8693,22.2811986,114.18255490000001
Espuma,/en/hongkong/r-espuma-central-international-dessert-r431970/reviews,Central,1003,"[3011, 1014, 1008, 6000, 1024]","[Spanish, Dessert, Coffee Shop, International, Upper-floor Cafe]",$101-200,"17/F, M88, Wellington Place, 2-8 Wellington Street",513,415.0,17.0,3.7941540000000002,14645,22.2807986,114.15605490000002
Babbo Trattoria,/en/hongkong/r-babbo-trattoria-causeway-bay-italian-salad-r438272/reviews,Causeway Bay,1019,"[3006, 1022, 1081]","[Italian, Pizza, Salad]",$201-400,"5/F,Plaza 2000,2-4 Rusell Street",373,325.0,7.0,3.9462800000000002,8831,22.278658399999998,114.1816013
tori izakaya 鳥居居酒屋,/en/hongkong/r-tori-izakaya-causeway-bay-japanese-robatayaki-r188950/reviews,Causeway Bay,1019,"[2009, 1028, 1033, 1072]","[Japanese, Robatayaki, Izakaya, Skewer]",$201-400,"17/F, Macau Yat Yuen Centre, 525 Hennessy Road",362,314.0,18.0,4.015373,8967,22.280330499999998,114.18376640000001
Deluxe Daieiki Japanese Restaurant 極尚大瀛喜日本料理,/en/hongkong/r-deluxe-daieiki-japanese-restaurant-causeway-bay-japanese-all-you-can-eat-r468218/reviews,Causeway Bay,1019,"[2009, 1076]","[Japanese, All-you-can-eat]",$201-400,"11/F, Causeway Bay Plaza 2, 463-483 Lockhart Road",399,349.0,8.0,3.9795269999999996,16863,22.280552,114.182128
Gyuuzen Japanese Restaurant 牛禪燒肉日本料理,/en/hongkong/r-gyuuzen-japanese-restaurant-causeway-bay-japanese-sushi-sashimi-r176193/reviews,Causeway Bay,1019,"[2009, 1025, 1034]","[Japanese, Roast Meat, Sushi/Sashimi]",$201-400,"Shop 1302, 13/F, World Trade Centre, 280 Gloucester Road",349,316.0,20.0,4.001449,10144,22.2816465,114.18412450000001
Paradise Dynasty 樂天皇朝,/en/hongkong/r-paradise-dynasty-causeway-bay-guangdong-chinese-buns-r170063/reviews,Causeway Bay,1019,"[1002, 1041, 1001, 1011]","[Guangdong, Chinese Buns, Stir-Fry, Shanghai]",$101-200,"6/F, Lee Theatre, 99 Percival Street",508,353.0,19.0,3.826781,15249,22.278295,114.183079
Xiao Tian Gu Dessert Kaffee 小甜谷 Dessert Kaffee,/en/hongkong/r-xiao-tian-gu-dessert-kaffee-causeway-bay-western-dessert-r463869/reviews,Causeway Bay,1019,"[4000, 1014]","[Western, Dessert]",$101-200,"Shop 4-6, G/F, Cigna Tower, 482 Jaffe Road",434,359.0,11.0,3.89405,11249,22.280894500000002,114.18267009999998
ATUM Desserant,/en/hongkong/r-atum-desserant-causeway-bay-western-ice-cream-yogurt-r176319/reviews,Causeway Bay,1019,"[4000, 1014, 1006, 1015, 1008]","[Western, Dessert, Western Restaurant, Ice Cream/yogurt, Coffee Shop]",$101-200,"16/F, The L. Square, No. 459-461 Lockhart Road",296,255.0,4.0,3.991811,23315,22.2801863,114.18163899999999
Mad for Garlic,/en/hongkong/r-mad-for-garlic-causeway-bay-korean-pizza-r494914/reviews,Causeway Bay,1019,"[2001, 1022, 1006, 3006]","[Korean, Pizza, Western Restaurant, Italian]",$101-200,"Shop 1104, 11/F, Food Forum, Times Square, 1 Matheson Street",332,277.0,7.0,4.075786,8726,22.2781357,114.1821587
Sing Heung Yuen 勝香園,/en/hongkong/r-sing-heung-yuen-central-hong-kong-style-r10577/reviews,Central,1003,"[1004, 1009, 1016]","[Hong Kong Style, Tea Restaurant, Dai Pai Dong]",Below $50,2 Mei Lun Street,1292,920.0,76.0,3.525467,35916,22.284117840300002,114.15253579600001
Sun Thai Restaurant 新泰東南亞餐廳,/en/hongkong/r-sun-thai-restaurant-wan-chai-singaporean-curry-r189148/reviews,Wan Chai,1022,"[2002, 1009, 2004, 1033, 2005]","[Vietnamese, Seafood, Thai, Curry, Singaporean]",$101-200,"2/F, W Square, 314-324 Hennessy Road",327,264.0,8.0,3.9163,10716,22.2781549,114.1783696
Ramen Bari-Uma 霸嗎拉麵,/en/hongkong/r-ramen-bari-uma-causeway-bay-japanese-ramen-r456659/reviews,Causeway Bay,1019,"[2009, 1005]","[Japanese, Ramen]",$51-100,"G/F, Circle Tower, 28 Tang Lung Street",411,294.0,25.0,3.7812660000000005,8880,22.2792815,114.1820216
Green Orange,/en/hongkong/r-green-orange-sheung-wan-western-r149893/reviews,Sheung Wan,1001,"[4000, 1032]","[Western, Oyster Bar]",$201-400,"2/F, CS Tower, 50 Wing Lok Street",272,241.0,3.0,4.006488,12473,22.286298000000002,114.151799
深宵食堂,/en/hongkong/r-%E6%B7%B1%E5%AE%B5%E9%A3%9F%E5%A0%82-causeway-bay-japanese-skewer-r175101/reviews,Causeway Bay,1019,"[2009, 1072, 1033, 1035]","[Japanese, Skewer, Izakaya, Skewer]",$201-400,"6/F, Bartlock Centre, Yiu Wa Street",300,258.0,12.0,3.8092980000000005,8462,22.277682199999997,114.18218329999999
Bingo & Cook,/en/hongkong/r-bingo-cook-causeway-bay-korean-korean-fried-chicken-r465359/reviews,Causeway Bay,1019,"[2001, 1085]","[Korean, Korean Fried Chicken]",$101-200,"2/F, L'Hart, 487-489 Lockhart Road",308,267.0,8.0,3.970957,9571,22.280763916399998,114.18276697399999
Grill ขุนทอง,/en/hongkong/r-grill-%E0%B8%82%E0%B8%B8%E0%B8%99%E0%B8%97%E0%B8%AD%E0%B8%87-central-thai-meatless-menu-r459298/reviews,Central,1003,"[2004, 1072, 1002, 1073, 1035]","[Thai, Skewer, Takeaway, Meatless Menu, Skewer]",Below $50,"G/F, 17-19 D'Aguilar Street, Lan Kwai Fong",300,281.0,2.0,4.019031,5392,22.281336399999997,114.15545630000001
16 Shell,/en/hongkong/r-16-shell-tin-hau-italian-r440622/reviews,Tin Hau,1026,"[3006, 1006, 1008]","[Italian, Western Restaurant, Coffee Shop]",$101-200,"Shop B, G/F, Po Wing Building, 6-16 Shell Street, Fortress Hill",314,281.0,7.0,3.816447,6040,22.287001999999998,114.192176
Fujiyama 55 (ramen.tsukemen) 富士山55 (拉麵沾麵專門店),/en/hongkong/r-fujiyama-55-ramen-tsukemen-causeway-bay-japanese-ramen-r432688/reviews,Causeway Bay,1019,"[2009, 1005]","[Japanese, Ramen]",$51-100,"Shop 1, G/F., Progress Commercial Building, 9 Irving Street",293,250.0,10.0,3.785937,12313,22.2788437291,114.18640404899999
S2 Kitchen,/en/hongkong/r-s2-kitchen-central-japanese-sushi-sashimi-r460408/reviews,Central,1003,"[2009, 1034, 1033, 1072]","[Japanese, Sushi/Sashimi, Izakaya, Skewer]",$201-400,"Shop A, G/F, 51 Wellington Street",373,310.0,25.0,3.8064970000000002,11063,22.282626,114.1550159
Zenon Café,/en/hongkong/r-zenon-cafe-central-western-salad-r441426/reviews,Central,1003,"[4000, 1026, 1008, 1075, 1081, 1203]","[Western, Sandwich, Coffee Shop, All Day Breakfast, Salad, Cake]",$51-100,"G/F, 86 Wellington Street",253,217.0,5.0,4.021632,6046,22.2828033,114.1545466
Social Place 唐宮小聚,/en/hongkong/r-social-place-central-guangdong-dim-sum-r185054/reviews,Central,1003,"[1002, 1036, 1001]","[Guangdong, Dim Sum, Stir-Fry]",$101-200,"2/F, The L. Place, 139 Queen's Road Central",228,155.0,10.0,3.838596,18509,22.2845605,114.15406999999999
Van Gogh Kitchen 凡高廚房,/en/hongkong/r-van-gogh-kitchen-causeway-bay-western-r25429/reviews,Causeway Bay,1019,"[3006, 1006, 4000]","[Italian, Western Restaurant, Western]",$201-400,"2B Shing Wah Mansion, 451-457 Hennessy Road",407,357.0,18.0,4.029336,6016,22.279857,114.181895
豊勝手丼,/en/hongkong/r-%E8%B1%8A%E5%8B%9D%E6%89%8B%E4%B8%BC-causeway-bay-japanese-sushi-sashimi-r504942/reviews,Causeway Bay,1019,"[2009, 1034, 1033]","[Japanese, Sushi/Sashimi, Izakaya]",$101-200,"Shop D, G/F, Always Centre, 468 Jaffe Road",250,224.0,3.0,4.079508000000001,8836,22.2807101667,114.18197304
Tararan-ya 鱈卵屋,/en/hongkong/r-tararan-ya-causeway-bay-japanese-udon-r166413/reviews,Causeway Bay,1019,"[2009, 1034, 1037]","[Japanese, Sushi/Sashimi, Udon]",$201-400,"14/F, Circle Plaza, No. 499 Hennessy Road",274,246.0,5.0,4.027099,6868,22.2803,114.18305
DK Cuppa Tea,/en/hongkong/r-dk-cuppa-tea-sheung-wan-western-r446636/reviews,Sheung Wan,1001,"[4000, 1008]","[Western, Coffee Shop]",$201-400,"G/F, 19 New Market Street",430,362.0,5.0,3.98835,8139,22.287276100000003,114.1499832
ICHIRAN 天然豚骨拉麵專門店一蘭,/en/hongkong/r-ichiran-causeway-bay-japanese-ramen-r140523/reviews,Causeway Bay,1019,"[2009, 1005]","[Japanese, Ramen]",$51-100,"Shop F-I, G/F, Lockhart House, Block A, 440 Jaffe Road",611,346.0,48.0,3.675,24032,22.2803134681,114.181120098
Espuma,/en/hongkong/r-espuma-wan-chai-international-dessert-r448363/reviews,Wan Chai,1022,"[3011, 1014, 1008, 6000]","[Spanish, Dessert, Coffee Shop, International]",$101-200,"25/F, QRE Plaza, 202 Queen Road East",340,282.0,13.0,3.7945309999999997,8435,22.2749726117,114.172209799
Ming Bistro 名館,/en/hongkong/r-ming-bistro-causeway-bay-international-dim-sum-r478614/reviews,Causeway Bay,1019,"[1002, 1036, 1001, 1011, 6000]","[Guangdong, Dim Sum, Stir-Fry, Shanghai, International]",$101-200,"Shop 1401, 14/F, Hysan Place, 500 Hennessy Road",264,227.0,6.0,3.9777339999999994,8594,22.279889069099998,114.18360099700001
Volcano Grill 火山燒,/en/hongkong/r-volcano-grill-causeway-bay-japanese-all-you-can-eat-r453033/reviews,Causeway Bay,1019,"[2009, 1072, 1035, 1076]","[Japanese, Skewer, Skewer, All-you-can-eat]",$201-400,"9-10/F,  The L. Square, 459-461 Lockhart Road",455,351.0,43.0,3.61869,15940,22.2804101,114.1822298
Yuan Is Here 阿元來了,/en/hongkong/r-yuan-is-here-western-district-taiwan-taiwanese-drink-r433525/reviews,Western District,1008,"[1009, 1006, 1015, 1010]","[Taiwan, Taiwanese Drink, Snack Shop & Deli, Noodles/Rice Noodles]",$51-100,"G/F, 73 Third Street, Sai Ying Pun",277,158.0,17.0,3.6265910000000003,16604,22.28572,114.1419183
Love Cafe 心之食堂,/en/hongkong/r-love-cafe-causeway-bay-japanese-sushi-sashimi-r511427/reviews,Causeway Bay,1019,"[2009, 1034, 1033, 6000, 1072]","[Japanese, Sushi/Sashimi, Izakaya, International, Skewer]",$201-400,"Room 1203, 12/F, Bartlock Centre, 3 Yiu Wa Street",279,253.0,3.0,3.9422379999999997,3043,22.2777035,114.18217849999999
Coffee Alley 咖啡弄,/en/hongkong/r-coffee-alley-causeway-bay-western-r120973/reviews,Causeway Bay,1019,"[4000, 1008]","[Western, Coffee Shop]",$101-200,"Room B1-B3, 1/F, Dragon Rise, 9-11 Pennington Street",561,351.0,31.0,3.77587,19042,22.278845999999998,114.18592199999999
Harvest House Sushi 家賀屋刺身寿司專門店,/en/hongkong/r-harvest-house-sushi-wan-chai-japanese-sushi-sashimi-r488893/reviews,Wan Chai,1022,"[2009, 1034]","[Japanese, Sushi/Sashimi]",$101-200,"1/F, 83 Wan Chai Road",257,231.0,3.0,4.06506,7739,22.276355399999996,114.174877
Shari Shari Kakigori House 氷屋,/en/hongkong/r-shari-shari-kakigori-house-%E6%B0%B7%E5%B1%8B-causeway-bay-japanese-ice-cream-yogurt-r473159/reviews,Causeway Bay,1019,"[2009, 1014, 1015]","[Japanese, Dessert, Ice Cream/yogurt]",$51-100,"G/F, 14 Haven Street",194,151.0,2.0,4.047407,10917,22.277978,114.1866836
Mr. Steak Buffet à la minute,/en/hongkong/r-mr-steak-buffet-a-la-minute-causeway-bay-international-buffet-r179934/reviews,Causeway Bay,1019,"[6000, 1032, 1003]","[International, Buffet, Steak House]",$401-800,"6/F, World Trade Center, 280 Gloucester Road",221,143.0,18.0,3.807286,21884,22.2816465,114.18412450000001
Seoul House 首爾家韓國料理,/en/hongkong/r-seoul-house-causeway-bay-korean-korean-fried-chicken-r161639/reviews,Causeway Bay,1019,"[2001, 1025, 1085]","[Korean, Roast Meat, Korean Fried Chicken]",$101-200,"1/F, Hotel Pennington, 13-15 Pennington Street",230,191.0,7.0,3.865158,5299,22.278550855,114.186070114
Y Pasta,/en/hongkong/r-y-pasta-causeway-bay-western-r478416/reviews,Causeway Bay,1019,"[4000, 1006]","[Western, Western Restaurant]",$101-200,"14/F, The L. Square, 459-461 Lockhart Road",264,221.0,16.0,3.857587,4572,22.2801857,114.18164070000002
Bistronomique,/en/hongkong/r-bistronomique-western-district-french-r431998/reviews,Western District,1008,"[3010, 1006]","[French, Western Restaurant]",$201-400,"Shop 1, G/F, Grand Fortune Mansion, 1 Davis Street",202,184.0,4.0,4.141538,7038,22.2836816,114.12681909999999
Glasshouse,/en/hongkong/r-glasshouse-central-western-r166040/reviews,Central,1003,"[4000, 1006, 6000]","[Western, Western Restaurant, International]",$101-200,"Shop 4009, Level 4, IFC, 1 Harbour View Street,",246,159.0,14.0,3.7318379999999998,16534,22.2846638546,114.158045053
Kamameshi 奈良上釜,/en/hongkong/r-kamameshi-causeway-bay-japanese-r514912/reviews,Causeway Bay,1019,[2009],[Japanese],$101-200,"G/F, 39 Tang Lung Street",213,163.0,12.0,3.7502459999999997,12708,22.2791575,114.18241850000001
LA Creperie,/en/hongkong/r-la-creperie-causeway-bay-french-meatless-menu-r449118/reviews,Causeway Bay,1019,"[3010, 1014, 1073]","[French, Dessert, Meatless Menu]",$101-200,"8/F, The L. Square, 459-461 Lockhart Road",172,128.0,5.0,3.970967,14747,22.2801963,114.1816652
Rang Mahal Authentic Indian Cuisine,/en/hongkong/r-rang-mahal-authentic-indian-cuisine-central-indian-r153355/reviews,Central,1003,[2006],[Indian],$101-200,"2/F, 118 Queen's Queen Road",202,179.0,4.0,3.874358,3693,22.283712,114.15466699999999
Running Chicken Deluxe 米走雞Deluxe,/en/hongkong/r-running-chicken-deluxe-causeway-bay-hong-kong-style-chicken-hot-pot-r504576/reviews,Causeway Bay,1019,"[1004, 1001, 6000, 1074]","[Hong Kong Style, Hot Pot, International, Chicken Hot Pot]",$101-200,"3/F, Jardine Centre, 50 Jardine's Bazaar",186,169.0,7.0,4.043243,4284,22.279408,114.1856449
Soi 18 Thai Cuisine 18巷泰國餐廳,/en/hongkong/r-soi-18-thai-cuisine-causeway-bay-thai-curry-r176221/reviews,Causeway Bay,1019,"[2004, 1033, 1035, 1072]","[Thai, Curry, Skewer, Skewer]",$101-200,"Shop 1302B, 13/F, World Trade Centre, 280 Gloucester Road",237,196.0,12.0,3.8770919999999998,7462,22.281655999999998,114.184096
Bilibala Yakitori Bar,/en/hongkong/r-bilibala-yakitori-bar-causeway-bay-japanese-skewer-r179689/reviews,Causeway Bay,1019,"[2009, 1072, 1010]","[Japanese, Skewer, Bar]",$201-400,"G/F, Lei Wen Court, 23 Haven Street",191,181.0,2.0,4.009258999999999,4421,22.2775135,114.1869902
Flame Japanese Cuisine 焱丸水產,/en/hongkong/r-flame-japanese-cuisine-causeway-bay-japanese-seafood-r513201/reviews,Causeway Bay,1019,"[2009, 1009, 1034]","[Japanese, Seafood, Sushi/Sashimi]",$201-400,"Shop C2, G/F, Lockhart House Block B, 440 Jaffe Road, Causeway Bay",191,177.0,3.0,4.1652629999999995,5026,22.2804521,114.18152649999999
Chau Kee 周記點心,/en/hongkong/r-chau-kee-western-district-hong-kong-style-dim-sum-r440685/reviews,Western District,1008,"[1002, 1036, 1009, 1004]","[Guangdong, Dim Sum, Tea Restaurant, Hong Kong Style]",Below $50,"Shop H1, G/F, Tung Lee Mansion, Water Street, Sai Ying Pun",168,132.0,1.0,3.79625,13008,22.2869415,114.13875549999999
Odelice!,/en/hongkong/r-odelice-wan-chai-french-r160508/reviews,Wan Chai,1022,[3010],[French],$101-200,"Shop 9, 2 Landale Street",220,157.0,11.0,3.810975,15529,22.277133633400002,114.16933581200001
Lo Spazio,/en/hongkong/r-lo-spazio-causeway-bay-american-salad-r492592/reviews,Causeway Bay,1019,"[3006, 1009, 4001, 1081]","[Italian, Seafood, American, Salad]",$201-400,"7/F, Henry House, 42 Yun Ping Road",203,181.0,4.0,4.074484,4953,22.279241,114.18463799999999
Sabor Spanish Touch Private Kitchen,/en/hongkong/r-sabor-spanish-touch-private-kitchen-sheung-wan-spanish-r82264/reviews,Sheung Wan,1001,"[3011, 1023]","[Spanish, Private Kitchen]",$201-400,"Rm 601, 6/F, Cheung's Building, 1-3 Wing Lok Street",226,208.0,5.0,4.052534,6544,22.2856754645,114.15387851
Tulsi & Wine,/en/hongkong/r-tulsi-wine-western-district-indian-curry-r188600/reviews,Western District,1008,"[2006, 1008, 6000, 1022, 1033]","[Indian, Wine, International, Pizza, Curry]",$101-200,"G/F, 10-11 The Bonham Mansion, 63 Bonham Road, Sai Ying Pun",266,248.0,1.0,3.905273,6390,22.2844188,114.14083400000001
AGE Cuisine Express,/en/hongkong/r-age-cuisine-express-quarry-bay-international-pizza-r61705/reviews,Quarry Bay,1014,"[6000, 1022]","[International, Pizza]",$101-200,"Room 1104B, Eastern Centre, 1065 King's Road",232,197.0,8.0,3.818859,3591,22.285064000000002,114.21416
Sun Thai Restaurant 新泰東南亞餐廳,/en/hongkong/r-sun-thai-restaurant-wan-chai-singaporean-curry-r481589/reviews,Wan Chai,1022,"[2004, 1009, 2005, 1033, 1072]","[Thai, Seafood, Singaporean, Curry, Skewer]",$101-200,"Shop 3, G/F, 20 Luard Road",189,174.0,1.0,4.045161,3845,22.2787091,114.17194099999999
La Vache!,/en/hongkong/r-la-vache-central-french-r155310/reviews,Central,1003,"[3010, 1003]","[French, Steak House]",$201-400,"G/F, 48 Peel Street, Soho",213,135.0,16.0,3.8731949999999995,20918,22.282447,114.152717
Leisurely Veggie 悠蔬食,/en/hongkong/r-leisurely-veggie-causeway-bay-international-meatless-menu-r435789/reviews,Causeway Bay,1019,"[6000, 1011, 1008, 1014, 1073]","[International, Vegetarian, Coffee Shop, Dessert, Meatless Menu]",$101-200,"25/F, Jardine Center, 50 Jardine's Bazaar",163,131.0,3.0,3.9950330000000003,9756,22.279408,114.185645
Sashi Japanese Yakiniku Restaurant 尚鮮日式燒肉漁市場,/en/hongkong/r-sashi-japanese-yakiniku-restaurant-causeway-bay-japanese-buffet-r490191/reviews,Causeway Bay,1019,"[2009, 1032, 1072]","[Japanese, Buffet, Skewer]",$201-400,"3/F, Richmond Plaza, 496 Jaffe Road",275,216.0,11.0,3.852131,9493,22.280929399999998,114.18300009999999
Mini Club,/en/hongkong/r-mini-club-causeway-bay-western-wine-r456843/reviews,Causeway Bay,1019,"[4000, 1008, 1006, 1009, 1010, 1032]","[Western, Wine, Western Restaurant, Seafood, Bar, Oyster Bar]",$201-400,"1/F, L' HART, 487-489 Lockhart Road",248,220.0,6.0,3.8345830000000003,7765,22.2807349862,114.182804525
Cafe 2 Oyster n Grill,/en/hongkong/r-cafe-2-oyster-n-grill-western-district-western-all-day-breakfast-r448491/reviews,Western District,1008,"[4000, 1075, 1008, 8, 6000]","[Western, All Day Breakfast, Coffee Shop, Private Party, International]",$101-200,"Shop C&D, G/F, 371-379 Queen's Road",205,191.0,6.0,4.003015,4696,22.2867999678,114.139286061
BAKE Cheese Tart,/en/hongkong/r-bake-cheese-tart-causeway-bay-western-dessert-r460266/reviews,Causeway Bay,1019,"[2009, 1003, 1015, 4000, 1014]","[Japanese, Bakery, Snack Shop & Deli, Western, Dessert]",Below $50,"Shop 10, B2/F, Sogo, 555 Hennessy Road",323,210.0,13.0,3.681475,8125,22.2804197785,114.184244871
Bistro Seoul 首首.韓式小館,/en/hongkong/r-bistro-seoul-wan-chai-korean-r504189/reviews,Wan Chai,1022,[2001],[Korean],$201-400,"Shop G22-23, G/F, Lee Tung Avenue, 200 Queen’s Road East",209,181.0,15.0,3.925365,2646,22.275825606999998,114.172467291
Superdon スーパー丼,/en/hongkong/r-superdon-causeway-bay-japanese-sushi-sashimi-r524870/reviews,Causeway Bay,1019,"[2009, 1034]","[Japanese, Sushi/Sashimi]",$101-200,"G/F, 501 Lockhart Road",226,184.0,10.0,3.9013690000000003,7348,22.2806426,114.183071
The Grand Buffet 自助山,/en/hongkong/r-the-grand-buffet-wan-chai-international-buffet-r436598/reviews,Wan Chai,1022,"[6000, 1032]","[International, Buffet]",$401-800,"62/F, Hopewell Centre, 183 Queen's Road East",194,101.0,20.0,3.803714,14733,22.274756699999998,114.17191229999999
九重鮮,/en/hongkong/r-%E4%B9%9D%E9%87%8D%E9%AE%AE-tai-hang-korean-hot-pot-r450100/reviews,Tai Hang,1025,"[2001, 1001, 1009, 1018, 1204]","[Korean, Hot Pot, Seafood, Congee, Steam Hotpot]",$201-400,"1/F, Wun Sha Court, 1-5 Wun Sha Street",202,175.0,6.0,4.087308999999999,5607,22.279166601500002,114.19255337700001
Crabtain Restaurant 一番風味,/en/hongkong/r-crabtain-restaurant-wan-chai-guangdong-r504928/reviews,Wan Chai,1022,"[1002, 1001]","[Guangdong, Stir-Fry]",$51-100,"G/F, Ming Fung Building, 138 Wan Chai Road",194,170.0,2.0,4.011340000000001,5632,22.2768853,114.1763457
Chili Party 麻辣派對,/en/hongkong/r-chili-party-causeway-bay-sichuan-r494429/reviews,Causeway Bay,1019,"[1008, 1001]","[Sichuan, Stir-Fry]",$51-100,"Shop R1, 4/F, Island Beverley, 1 Great George Street",165,139.0,3.0,4.029746,5345,22.280509128800002,114.18491542299999
The Drunken Pot 酒鍋,/en/hongkong/r-the-drunken-pot-causeway-bay-guangdong-hot-pot-r512243/reviews,Causeway Bay,1019,"[1002, 1001, 1009, 1036, 1041]","[Guangdong, Hot Pot, Seafood, Dim Sum, Chinese Buns]",$201-400,"27/F, V Point, 18 Tang Lung Street",231,194.0,6.0,3.931553,7512,22.2790162267,114.181551933
Cong Sao Star Dessert 聰嫂星級甜品,/en/hongkong/r-cong-sao-star-dessert-causeway-bay-hong-kong-style-dessert-r112507/reviews,Causeway Bay,1019,"[1004, 1014, 1202]","[Hong Kong Style, Dessert, Sweet Soup]",Below $50,"G/F, 11 Yiu Wa Street",241,169.0,12.0,3.715486,13733,22.277651262600003,114.182045764
Dodam Chicken,/en/hongkong/r-dodam-chicken-causeway-bay-korean-korean-fried-chicken-r516304/reviews,Causeway Bay,1019,"[2001, 1085]","[Korean, Korean Fried Chicken]",$101-200,"18/F., Shop A, Lee Theatre Plaza, 99 Percival Street",257,213.0,10.0,4.0292330000000005,5613,22.278328,114.18314099999999
Kam Kee Cafe 金記冰室,/en/hongkong/r-kam-kee-cafe-wan-chai-hong-kong-style-r449750/reviews,Wan Chai,1022,"[1004, 1009, 1083]","[Hong Kong Style, Tea Restaurant, Food Wise Eateries]",$51-100,"Shop D-E, G/F, Diamond Building, 6-18 Tin Lok Lane",210,173.0,5.0,3.7618089999999995,4998,22.2781996,114.17955800000001
Ming Bistro 名館,/en/hongkong/r-ming-bistro-central-international-dim-sum-r528241/reviews,Central,1003,"[1002, 1036, 1001, 1011, 6000]","[Guangdong, Dim Sum, Stir-Fry, Shanghai, International]",$201-400,"1/F, Lyndhurst Tower, 1-7 Lyndhurst Terrace",140,136.0,1.0,4.222826,4820,22.2824794,114.1546058
Shin Mapo BBQ 新麻蒲 BBQ,/en/hongkong/r-shin-mapo-bbq-causeway-bay-korean-roast-meat-r176942/reviews,Causeway Bay,1019,"[2001, 1025]","[Korean, Roast Meat]",$101-200,"2/F, Po Hon Building, 24-30 Percival Street",205,148.0,13.0,3.6885410000000003,9210,22.2806573,114.18253159999999
Texas Burger,/en/hongkong/r-texas-burger-tin-hau-western-meatless-menu-r170287/reviews,Tin Hau,1026,"[4000, 1035, 1006, 4001, 1073, 1007]","[Western, Hamburger, Western Restaurant, American, Meatless Menu, Fast Food]",$51-100,"G/F, 109 Electric Road",267,200.0,22.0,3.625781,8209,22.2853687,114.19141210000001
ROJO,/en/hongkong/r-rojo-tin-hau-western-seafood-r491240/reviews,Tin Hau,1026,"[3011, 1009, 1003, 4000, 1010, 6000]","[Spanish, Seafood, Steak House, Western, Bar, International]",$201-400,"Shop B, G/F, 3 Jupiter Street, Fortress Hill",198,173.0,5.0,3.9618550000000003,3119,22.2862201,114.19249440000002
Shin Shu Japanese 信州日本料理,/en/hongkong/r-shin-shu-japanese-western-district-japanese-omakase-r169804/reviews,Western District,1008,"[2009, 1034, 1205]","[Japanese, Sushi/Sashimi, Omakase]",$201-400,"Shop 5, G/F., Grand Fortune Mansion, 1Davis Street, Kennedy Town",167,154.0,3.0,4.058180999999999,3212,22.2835091,114.12671440000001
Tulsi Indian Restaurant 羅勒印度餐廳,/en/hongkong/r-tulsi-indian-restaurant-north-point-indian-curry-r115381/reviews,North Point,1004,"[2006, 1033]","[Indian, Curry]",$101-200,"G/F, Fairview Court, 7 Tsat Tsz Mui Road",232,202.0,10.0,3.760222,4184,22.290697899999998,114.2009899
Lily & Bloom,/en/hongkong/r-lily-bloom-central-american-r48143/reviews,Central,1003,"[4001, 1032]","[American, Oyster Bar]",$401-800,"5 & 6/F, LKF Tower, 33 Wyndham Street, Lan Kwai Fong",194,149.0,10.0,3.896703,11290,22.280337874,114.155142903
Fuunmaru 風雲丸,/en/hongkong/r-fuunmaru-wan-chai-japanese-ramen-r527537/reviews,Wan Chai,1022,"[2009, 1005]","[Japanese, Ramen]",$51-100,"Shop B, G/F, W Square, 314-324 Hennessy Road",194,149.0,11.0,3.9183779999999997,7498,22.2781513,114.17837490000001
SUPPA 十下,/en/hongkong/r-suppa-causeway-bay-guangdong-hot-pot-r515292/reviews,Causeway Bay,1019,"[1002, 1001]","[Guangdong, Hot Pot]",$101-200,"2/F, Circle Tower, 28 Tang Lung Street",156,135.0,3.0,4.057432,7615,22.2792644243,114.182028025
Otto Restaurant,/en/hongkong/r-otto-restaurant-causeway-bay-french-seafood-r175395/reviews,Causeway Bay,1019,"[3010, 1009]","[French, Seafood]",$201-400,"16-17F, L'hart 487-489 Lockhart Road",190,183.0,4.0,4.196315,4131,22.280743899999997,114.1827842
E Molto Buono,/en/hongkong/r-e-molto-buono-causeway-bay-french-fine-dining-r461161/reviews,Causeway Bay,1019,"[3006, 1200, 1032, 3010]","[Italian, Fine Dining, Oyster Bar, French]",$401-800,"2/F, Perfect Commercial Building, 28 Sharp Street West",152,147.0,1.0,4.308724,4054,22.2775435,114.1808895
漁火海鮮刺身火鍋,/en/hongkong/r-%E6%BC%81%E7%81%AB%E6%B5%B7%E9%AE%AE%E5%88%BA%E8%BA%AB%E7%81%AB%E9%8D%8B-causeway-bay-guangdong-hot-pot-r513292/reviews,Causeway Bay,1019,"[1002, 1001, 1009]","[Guangdong, Hot Pot, Seafood]",$201-400,"8/F, Kyoto Plaza, 491-499 Lockhart Road",164,157.0,2.0,4.254037,4639,22.280769733499998,114.183005691
Goobne Chicken,/en/hongkong/r-goobne-chicken-causeway-bay-korean-korean-fried-chicken-r503026/reviews,Causeway Bay,1019,"[2001, 1085]","[Korean, Korean Fried Chicken]",$101-200,"25/F, V Point, 18 Tang Lung Street",185,155.0,5.0,4.073862999999999,5167,22.279008354200002,114.181588143
The Socialhouse,/en/hongkong/r-the-socialhouse-tai-hang-western-r107041/reviews,Tai Hang,1025,[4000],[Western],$201-400,12-13 Shepherd Street,155,141.0,1.0,4.101013,2441,22.278305800000002,114.1917544
Lady M,/en/hongkong/r-lady-m-causeway-bay-western-bakery-r493578/reviews,Causeway Bay,1019,"[4000, 1003, 1008]","[Western, Bakery, Coffee Shop]",$51-100,"Shop C, G/F, 1-3 Cleveland Street, Fashion Walk",148,107.0,5.0,3.953146,5204,22.2818061,114.18557050000001
Brunch Club & Supper,/en/hongkong/r-brunch-club-supper-causeway-bay-british-all-day-breakfast-r19138/reviews,Causeway Bay,1019,"[3009, 1075]","[British, All Day Breakfast]",$101-200,"1/F, 13 Leighton Road",265,175.0,19.0,3.598804,21112,22.2768327,114.18151950000001
ZUC.CCH.ERO,/en/hongkong/r-zuc-cch-ero-causeway-bay-western-ice-cream-yogurt-r470942/reviews,Causeway Bay,1019,"[4000, 1014, 1010, 1015, 1024, 1203]","[Western, Dessert, Bar, Ice Cream/yogurt, Upper-floor Cafe, Cake]",$101-200,"Room 1802-3, 18/F, Bartlock Centre, 3 Yiu Wa Street",132,104.0,4.0,3.860546,11613,22.2777035,114.18217849999999
Oldish,/en/hongkong/r-oldish-sheung-wan-british-all-day-breakfast-r187980/reviews,Sheung Wan,1001,"[3009, 1075]","[British, All Day Breakfast]",$101-200,"G/F, 53 Tung Street",153,120.0,8.0,3.8587830000000003,10519,22.284531,114.1488062
Kau Kee Restaurant 九記牛腩,/en/hongkong/r-kau-kee-restaurant-central-guangdong-noodles-rice-noodles-r1618/reviews,Central,1003,"[1002, 1010]","[Guangdong, Noodles/Rice Noodles]",Below $50,"G/F, 21 Gough Street",951,496.0,173.0,3.219213,29829,22.284272,114.152648
Yum Cha 飲茶,/en/hongkong/r-yum-cha-central-guangdong-dim-sum-r475054/reviews,Central,1003,"[1002, 1036, 1001, 1041]","[Guangdong, Dim Sum, Stir-Fry, Chinese Buns]",$101-200,"2/F, Nan Fung Place, 173 Des Voeux Road Central",133,80.0,7.0,3.67161,9527,22.285936,114.15444199999999
OVOCAFE,/en/hongkong/r-ovocafe-wan-chai-western-vegetarian-r169508/reviews,Wan Chai,1022,"[4000, 1011, 1006, 1008]","[Western, Vegetarian, Western Restaurant, Coffee Shop]",$101-200,G/F 1 Wanchai Road (inside Old Wanchai Market),201,115.0,15.0,3.5582050000000005,15632,22.2745991,114.1739521
Gioia Charcoal Grill & Oyster Bar,/en/hongkong/r-gioia-charcoal-grill-oyster-bar-western-district-international-seafood-r495014/reviews,Western District,1008,"[6000, 1009, 1010, 1032]","[International, Seafood, Bar, Oyster Bar]",$201-400,"Shop A-C, G/F, May Sun Building, 55-57 Catchick Street, Kennedy Town",168,154.0,2.0,3.9762190000000004,2907,22.283601,114.1278499
L'attitude,/en/hongkong/r-lattitude-western-district-western-ice-cream-yogurt-r520157/reviews,Western District,1008,"[4000, 1014, 1021, 6000, 1015]","[Western, Dessert, Yoshoku, International, Ice Cream/yogurt]",$101-200,"Shop 2, Imperial Kennedy, 68 Belcher's Street, Kennedy Town",159,150.0,1.0,4.215189,3147,22.2826180949,114.128754264
Capital Café 華星冰室,/en/hongkong/r-capital-cafe-wan-chai-hong-kong-style-r41467/reviews,Wan Chai,1022,"[1004, 1009]","[Hong Kong Style, Tea Restaurant]",Below $50,"Shop B1, G/F, Kwong Sang Hong Building, 6 Heard Street",554,311.0,39.0,3.5368470000000003,16279,22.2776962215,114.17726039899999
Shui Kee Coffee 瑞記咖啡,/en/hongkong/r-shui-kee-coffee-sheung-wan-hong-kong-style-r18167/reviews,Sheung Wan,1001,"[1004, 1009, 1080]","[Hong Kong Style, Tea Restaurant, Cooked Food Center]",Below $50,"Shop 17, 18167",312,214.0,8.0,3.5061459999999998,13777,22.286193,114.14976000000001
101 Grill Bar + Hot Pot 101手工涮涮鍋,/en/hongkong/r-101-grill-bar-hot-pot-causeway-bay-taiwan-hot-pot-r537809/reviews,Causeway Bay,1019,"[1009, 1001]","[Taiwan, Hot Pot]",$201-400,"29/F, Soundwill Plaza 2, 1-29 Tang Lung Street",230,223.0,0.0,4.388495,5679,22.278963,114.18236100000001
Neighbor,/en/hongkong/r-neighbor-causeway-bay-western-r515572/reviews,Causeway Bay,1019,"[3006, 1003, 4000, 1006]","[Italian, Steak House, Western, Western Restaurant]",$101-200,"G/F, 5 Pennington Street",208,173.0,6.0,3.9246230000000004,7859,22.2791341206,114.186181426
FireBird,/en/hongkong/r-firebird-causeway-bay-japanese-skewer-r487196/reviews,Causeway Bay,1019,"[2009, 1072, 1033, 6, 7, 8]","[Japanese, Skewer, Izakaya, Group Dining, Special Occasion Dining, Private Party]",$101-200,"G/F, Hotel Pennington by Rhombus, 13 Pennington Street",173,151.0,7.0,3.988957,3883,22.277829500000003,114.18606480000001
Green Waffle Diner,/en/hongkong/r-green-waffle-diner-central-western-all-day-breakfast-r46305/reviews,Central,1003,"[4000, 1014, 1006, 4001, 1075, 1008]","[Western, Dessert, Western Restaurant, American, All Day Breakfast, Coffee Shop]",$101-200,"G/F,  Kar Ho Building, 35-39 Graham Street",275,196.0,17.0,3.7484839999999995,9573,22.282953,114.15328000000001
Beef & Liberty,/en/hongkong/r-beef-liberty-wan-chai-american-hamburger-r162565/reviews,Wan Chai,1022,"[4001, 1035]","[American, Hamburger]",$101-200,"2/F, 23 Wing Fung Street",143,105.0,5.0,3.9368,9784,22.276466100000004,114.1682372
Seansin Seafood Hotpot Experts 尚鮮火鍋海鮮料理,/en/hongkong/r-seansin-seafood-hotpot-experts-causeway-bay-hong-kong-style-hot-pot-r458319/reviews,Causeway Bay,1019,"[1004, 1001, 1001, 1009, 1034]","[Hong Kong Style, Hot Pot, Stir-Fry, Seafood, Sushi/Sashimi]",$201-400,"8/F, Bartlock Centre, 3 Yiu Wa Street",141,129.0,3.0,4.142592,4753,22.2777035,114.18217849999999
Kam Kee Cafe 金記冰室,/en/hongkong/r-kam-kee-cafe-western-district-hong-kong-style-r132408/reviews,Western District,1008,"[1004, 1009, 1083]","[Hong Kong Style, Tea Restaurant, Food Wise Eateries]",$51-100,"G/F, 215 Des Voeux Road West, Sai Ying Pun",230,168.0,14.0,3.6434879999999996,5677,22.287785999999997,114.141397
The Graces Restaurant 玉桃軒酒家,/en/hongkong/r-the-graces-restaurant-causeway-bay-guangdong-dim-sum-r3662/reviews,Causeway Bay,1019,"[1002, 1036, 1001, 1005]","[Guangdong, Dim Sum, Stir-Fry, Dim Sum Restaurant]",$101-200,"20/F, Lee Theatre Plaza, 99 Percival Street",161,127.0,6.0,3.8227269999999995,1920,22.278328,114.18314099999999
Casa Pennington,/en/hongkong/r-casa-pennington-causeway-bay-western-wine-r153908/reviews,Causeway Bay,1019,"[4000, 1008, 1006, 7, 1009, 1032, 8]","[Western, Wine, Western Restaurant, Special Occasion Dining, Seafood, Oyster Bar, Private Party]",$401-800,"3/F, Hotel Pennington by Rhombus, 13-15 Pennington Street, Causeway Bay, H.K.",153,148.0,1.0,4.045666000000001,4158,22.278577908600003,114.186009765
Seoulmate Cafe,/en/hongkong/r-seoulmate-cafe-causeway-bay-international-all-day-breakfast-r528101/reviews,Causeway Bay,1019,"[2001, 1014, 1008, 6000, 1075]","[Korean, Dessert, Coffee Shop, International, All Day Breakfast]",$101-200,"4/F, Kyoto Plaza, 491-499 Lockhart Road",165,138.0,3.0,3.953086,6428,22.280752,114.18300500000001
Chef Recommendation Restaurant 煮打菜打冷小菜館,/en/hongkong/r-chef-recommendation-restaurant-shau-kei-wan-chiu-chow-r108100/reviews,Shau Kei Wan,1018,"[1001, 1001]","[Chiu Chow, Stir-Fry]",$51-100,"Shop 1, Hong Wah Mansion, 18 Nam Hong Street",152,127.0,6.0,3.993006,3272,22.2781907436,114.225831168
Mr. Crab by The Captain's House,/en/hongkong/r-mr-crab-by-the-captains-house-wan-chai-western-seafood-r520045/reviews,Wan Chai,1022,"[4000, 1009, 1006, 4001, 1032, 1081]","[Western, Seafood, Western Restaurant, American, Oyster Bar, Crab Specialty]",$101-200,"Shop C, G/F-1/F, 74-78 Johnstan Road",161,144.0,7.0,4.148427,6271,22.2762016,114.17217759999998
FRITES Belgium on Tap,/en/hongkong/r-frites-belgium-on-tap-causeway-bay-belgian-r467663/reviews,Causeway Bay,1019,"[3013, 1006]","[Belgian, Western Restaurant]",$201-400,"Shop 1, G/F, Park Haven, 38 Haven Street",140,134.0,1.0,4.259124,6103,22.2776713,114.18704059999999
Little Tomato Cafe 小桃咖啡室,/en/hongkong/r-little-tomato-cafe-causeway-bay-western-r112430/reviews,Causeway Bay,1019,"[4000, 1008, 1024]","[Western, Coffee Shop, Upper-floor Cafe]",$101-200,"Flat D, 2/F, Percival House, 83 Percival Street",181,162.0,2.0,3.975147,2115,22.2788331,114.18314479999998
O'Casa 屋喔,/en/hongkong/r-ocasa-central-western-dessert-r454605/reviews,Central,1003,"[1009, 1014, 4000]","[Taiwan, Dessert, Western]",$51-100,"G/F, 26-28 Gilman's Bazaar",164,121.0,10.0,3.710185,5871,22.2851788433,114.154403955
Penthouse,/en/hongkong/r-penthouse-causeway-bay-western-r474914/reviews,Causeway Bay,1019,"[4000, 1006]","[Western, Western Restaurant]",$201-400,"30/F, Soundwill Plaza 2 - Midtown, 1-29 Tang Lung Street",118,100.0,5.0,4.060869,6415,22.2789967587,114.18235391399999
Japanese Restaurant Doraya 定食 Doraya,/en/hongkong/r-japanese-restaurant-doraya-causeway-bay-japanese-sushi-sashimi-r13947/reviews,Causeway Bay,1019,"[2009, 1034]","[Japanese, Sushi/Sashimi]",$101-200,"G/F, 451 Lockhart Road",345,221.0,28.0,3.6111800000000005,10051,22.280128,114.181425
The Oyster House,/en/hongkong/r-the-oyster-house-wan-chai-italian-seafood-r455085/reviews,Wan Chai,1022,"[3006, 1009, 1032]","[Italian, Seafood, Oyster Bar]",$201-400,"Shop C, G/F, 154 Jaffe Road",197,164.0,7.0,3.94,8412,22.278712184,114.174071252
Chico Chica,/en/hongkong/r-chico-chica-western-district-international-seafood-r461392/reviews,Western District,1008,"[3011, 1009, 1010, 6000]","[Spanish, Seafood, Bar, International]",$201-400,"Shop J, G/F, 70 Third Street, Sai Ying Pun",132,120.0,1.0,4.0259540000000005,4549,22.285640642399997,114.14194209600001
La Kaffa,/en/hongkong/r-la-kaffa-north-point-western-all-day-breakfast-r459494/reviews,North Point,1004,"[4000, 1022, 1008, 1075]","[Western, Pizza, Coffee Shop, All Day Breakfast]",$51-100,"G/F, Ming Yuen Centre 2-6 Ming Yuen Western Street",176,117.0,10.0,3.707185,4886,22.2902785646,114.19884011100001
Villa Villa,/en/hongkong/r-villa-villa-north-point-western-all-day-breakfast-r478558/reviews,North Point,1004,"[4000, 1022, 1075]","[Western, Pizza, All Day Breakfast]",$101-200,"Shop 31, G/F, Tung Fat Building, 25A Kam Ping Street",145,129.0,4.0,4.062222,5617,22.2903066785,114.200386405
Barg,/en/hongkong/r-barg-causeway-bay-western-r30765/reviews,Causeway Bay,1019,"[3006, 1006, 6, 4000, 8, 11]","[Italian, Western Restaurant, Group Dining, Western, Private Party, Casual Drink]",$201-400,"1/F, Bartlock Centre, 3 Yiu Wa Street",166,143.0,6.0,4.043437,4777,22.277682199999997,114.18218329999999
Yamataka Seafood Market 築地‧山貴水產市場,/en/hongkong/r-yamataka-seafood-market-wan-chai-japanese-sushi-sashimi-r505807/reviews,Wan Chai,1022,"[2009, 1034]","[Japanese, Sushi/Sashimi]",$201-400,"2/F, Wan Chai Ferry Pier",205,95.0,28.0,3.527225,7933,22.283225909000002,114.17631626100001
The Graces Restaurant 玉桃軒酒家,/en/hongkong/r-the-graces-restaurant-tai-koo-guangdong-dim-sum-r82173/reviews,Tai Koo,1023,"[1002, 1036, 1001, 1005]","[Guangdong, Dim Sum, Stir-Fry, Dim Sum Restaurant]",$101-200,"Shop M1, M/F, Kornhill Plaza North, 1-2 Kornhill Road",138,115.0,4.0,3.953846,1025,22.2849002533,114.215970039
Warren,/en/hongkong/r-warren-tai-hang-international-r501075/reviews,Tai Hang,1025,"[3010, 6000]","[French, International]",$201-400,"Shop 1, G/F, The Warren, 9 Warren Street",132,128.0,2.0,4.072307,2139,22.278414345599998,114.19161155799999
The Point,/en/hongkong/r-the-point-causeway-bay-italian-salad-r433793/reviews,Causeway Bay,1019,"[3006, 1022, 1081]","[Italian, Pizza, Salad]",$101-200,"G/F, 52 Tang Lung Street",167,110.0,14.0,3.6943029999999997,7398,22.279410680300003,114.182512893
Trattoria Doppio Zero,/en/hongkong/r-trattoria-doppio-zero-sheung-wan-italian-wine-r51356/reviews,Sheung Wan,1001,"[3006, 1008]","[Italian, Wine]",$201-400,"G/F, The Pemberton, 22 Bonham Strand",200,147.0,15.0,3.911428,13947,22.285547,114.1520959
Camper's 坐忘,/en/hongkong/r-campers-tin-hau-japanese-meatless-menu-r434362/reviews,Tin Hau,1026,"[2009, 1005, 1037, 1073]","[Japanese, Ramen, Udon, Meatless Menu]",$51-100,"G/F, 127 Electric Road",121,88.0,2.0,4.068918,7486,22.285800899999998,114.19157309999999
Kanada-ya 金田家,/en/hongkong/r-kanada-ya-causeway-bay-japanese-ramen-r168743/reviews,Causeway Bay,1019,"[2009, 1005]","[Japanese, Ramen]",$51-100,"G/F, 34 Tang Lung Street",255,167.0,9.0,3.7465580000000003,8424,22.279303100000003,114.18219450000001
Mott 32 卅二公館,/en/hongkong/r-mott-32-central-sichuan-fine-dining-r166406/reviews,Central,1003,"[1002, 1036, 1001, 1008, 1200, 1010]","[Guangdong, Dim Sum, Stir-Fry, Sichuan, Fine Dining, Beijing]",$401-800,"Basement, Standard Chartered Bank Building, 4-4A Des Voeux Road Central",118,82.0,2.0,4.081958,12000,22.2803999228,114.158962369
Sakuragi Omakase 櫻木,/en/hongkong/r-sakuragi-omakase-wan-chai-japanese-omakase-r498674/reviews,Wan Chai,1022,"[2009, 1034, 1205]","[Japanese, Sushi/Sashimi, Omakase]",$201-400,"3/F, The Hennessy, 256 Hennessy Road",144,137.0,1.0,4.200719,1799,22.2776919,114.1761085
Chiu Chow Delicacies 潮樂園,/en/hongkong/r-chiu-chow-delicacies-north-point-chiu-chow-noodles-rice-noodles-r188551/reviews,North Point,1004,"[1001, 1010, 1001]","[Chiu Chow, Noodles/Rice Noodles, Stir-Fry]",$51-100,"Shop 4, G/F, Ngan Fai Building, 84-94 Wharf Road",181,148.0,10.0,3.823446,4415,22.2920922,114.19739799999999
i CREMERiA,/en/hongkong/r-i-cremeria-causeway-bay-japanese-ice-cream-yogurt-r348675/reviews,Causeway Bay,1019,"[2009, 1014, 1015]","[Japanese, Dessert, Ice Cream/yogurt]",$51-100,"Shop F-9, 1/F, 11-19 Great George Street, Fashion Walk",219,147.0,12.0,3.573953,5902,22.2805074224,114.185510874
La Postre,/en/hongkong/r-la-postre-sheung-wan-international-dessert-r451874/reviews,Sheung Wan,1001,"[3011, 1014, 6000]","[Spanish, Dessert, International]",$101-200,"3/F, CS Tower, 50 Wing Lok Street",142,112.0,9.0,3.6841720000000002,9572,22.286300640900002,114.151802706
炊豕店,/en/hongkong/r-%E7%82%8A%E8%B1%95%E5%BA%97-causeway-bay-hong-kong-style-r462369/reviews,Causeway Bay,1019,"[1004, 1015, 1009]","[Hong Kong Style, Snack Shop & Deli, Taiwan]",Below $50,"G/F, 11 Caroline Hill Road",139,109.0,6.0,3.8804510000000003,5631,22.2775206,114.1863885
Hungry Lobster,/en/hongkong/r-hungry-lobster-causeway-bay-western-salad-r506884/reviews,Causeway Bay,1019,"[4000, 1009, 1035, 1081]","[Western, Seafood, Hamburger, Salad]",$201-400,"Shop 3, G/F, V Point, 18 Tang Lung Street",150,116.0,8.0,3.790604,5258,22.2790162267,114.181551933
Summer Ice 夏雪,/en/hongkong/r-summer-ice-western-district-western-ice-cream-yogurt-r432464/reviews,Western District,1008,"[2009, 1014, 1008, 4000, 1015]","[Japanese, Dessert, Coffee Shop, Western, Ice Cream/yogurt]",$51-100,"Shop D, G/F, Full Harvest Building, 6-18 Hau Wo Street, Kennedy Town",148,105.0,1.0,3.938497,7783,22.2828525478,114.127823858
Seasons,/en/hongkong/r-seasons-causeway-bay-french-wine-r175633/reviews,Causeway Bay,1019,"[3010, 1008, 1009, 1203]","[French, Wine, Seafood, Cake]",$401-800,"Shop 308-311, 3/F, Lee Garden Two, 28 Yun Ping Road",157,96.0,11.0,3.760507,13716,22.2782823736,114.185925275
Shugetsu 麵鮮醬油房周月,/en/hongkong/r-shugetsu-central-japanese-ramen-r93324/reviews,Central,1003,"[2009, 1005]","[Japanese, Ramen]",$51-100,"G/F, 5 Gough Street",234,125.0,25.0,3.4900919999999998,11058,22.284122500000002,114.15284059999999
FLIPPER'S,/en/hongkong/r-flippers-causeway-bay-japanese-dessert-r535965/reviews,Causeway Bay,1019,"[2009, 1014]","[Japanese, Dessert]",$51-100,"i.t blue block, 6/F, Hysan Place, 500 Hennessy Road",161,95.0,12.0,3.7437080000000003,11938,22.279643,114.1838249
La Bo La,/en/hongkong/r-la-bo-la-wan-chai-vietnamese-noodles-rice-noodles-r487210/reviews,Wan Chai,1022,"[2002, 1010, 1010]","[Vietnamese, Noodles/Rice Noodles, Bar]",$201-400,"Shop G02-03 , G/F, Lee Tung Avenue, 200 Queen's Road East",137,100.0,5.0,3.756818,4519,22.2761722383,114.17259872
Jamie's Italian,/en/hongkong/r-jamies-italian-causeway-bay-italian-seafood-r177905/reviews,Causeway Bay,1019,"[3006, 1009, 1035]","[Italian, Seafood, Hamburger]",$201-400,"2/F, Soundwill Plaza 2 - Midtown, 1-29 Tang Lung Street",353,157.0,80.0,3.391492,12557,22.2789793848,114.182211757
Something Wild 野玩山店,/en/hongkong/r-something-wild-wan-chai-western-salad-r474082/reviews,Wan Chai,1022,"[4000, 1014, 1006, 6000, 1075, 1081]","[Western, Dessert, Western Restaurant, International, All Day Breakfast, Salad]",$101-200,"Shop 101-104, 1/F, Emperor Group, 288 Hennessy Road",147,121.0,5.0,3.9253519999999997,8617,22.277627399999997,114.17688500000001
Hanami 花見日本料理,/en/hongkong/r-hanami-causeway-bay-japanese-sushi-sashimi-r463139/reviews,Causeway Bay,1019,"[2009, 1034, 1033]","[Japanese, Sushi/Sashimi, Izakaya]",$201-400,"2/F, Bartlock Centre, 3 Yiu Wa Street",123,117.0,2.0,4.301626000000001,2309,22.2777035,114.18217849999999
Iron-Sichuan Food 鐵魚川式食堂,/en/hongkong/r-iron-sichuan-food-causeway-bay-sichuan-chicken-hot-pot-r518057/reviews,Causeway Bay,1019,"[1008, 1001, 1074]","[Sichuan, Hot Pot, Chicken Hot Pot]",$201-400,"6/F, Kyoto Plaza, 491-499 Lockhart Road",126,120.0,2.0,4.104838,3876,22.280752,114.18300500000001
Spark Bar & Restaurant,/en/hongkong/r-spark-bar-restaurant-central-french-seafood-r475418/reviews,Central,1003,"[3006, 1009, 1010, 3010, 1032]","[Italian, Seafood, Bar, French, Oyster Bar]",$201-400,"4/F, LKF 29, 29 Wyndham Street, Lan Kwai Fong",119,105.0,2.0,3.7923720000000003,5485,22.280222,114.1555332
Lin Heung Tea House 蓮香樓,/en/hongkong/r-lin-heung-tea-house-central-guangdong-congee-r1868/reviews,Central,1003,"[1002, 1010, 1005, 6, 1018, 1036, 1041]","[Guangdong, Noodles/Rice Noodles, Dim Sum Restaurant, Group Dining, Congee, Dim Sum, Chinese Buns]",$101-200,160-164 Wellington Street,791,503.0,68.0,3.414375,20381,22.2843979625,114.15355879100001
Kam Kee Cafe 金記冰室,/en/hongkong/r-kam-kee-cafe-causeway-bay-hong-kong-style-r488746/reviews,Causeway Bay,1019,"[1004, 1009]","[Hong Kong Style, Tea Restaurant]",$51-100,"G/F, 5 Sharp Street East",140,105.0,7.0,3.649264,4131,22.2779093,114.1830465
Master Low-key Food Shop 低調高手大街小食,/en/hongkong/r-master-low-key-food-shop-shau-kei-wan-hong-kong-style-r37602/reviews,Shau Kei Wan,1018,"[1004, 1015]","[Hong Kong Style, Snack Shop & Deli]",Below $50,"Shop B3, G/F, 76A Shau Kei Wan Main Street East",265,187.0,17.0,3.713076,5841,22.27936,114.229676
LA Creperie,/en/hongkong/r-la-creperie-wan-chai-french-meatless-menu-r44564/reviews,Wan Chai,1022,"[3010, 1014, 1073]","[French, Dessert, Meatless Menu]",$101-200,"1/F, Kui Chi Mansion, 100-102 Queen's Road East",220,146.0,10.0,3.7300459999999998,13464,22.276317000000002,114.17003799999999
Japanese Wagyu Yakiniku Pure 和牛燒肉‧純,/en/hongkong/r-japanese-wagyu-yakiniku-pure-causeway-bay-japanese-seafood-r125244/reviews,Causeway Bay,1019,"[2009, 1009, 1025]","[Japanese, Seafood, Roast Meat]",$201-400,"15/F, Henry House, 42 Yun Ping Road",121,107.0,2.0,4.087179,8558,22.279234,114.18464099999998
Pizza Maru,/en/hongkong/r-pizza-maru-causeway-bay-korean-korean-fried-chicken-r500527/reviews,Causeway Bay,1019,"[2001, 1022, 3006, 1085]","[Korean, Pizza, Italian, Korean Fried Chicken]",$101-200,"Shop 1302, 13/F, Hysan Place, 500 Hennessy Road",125,96.0,2.0,4.023504,4813,22.279643,114.1838249
White Beard Fish n Chips 白鬍子炸魚薯條,/en/hongkong/r-white-beard-fish-n-chips-central-western-hamburger-r484574/reviews,Central,1003,"[3009, 1035, 1007, 4000]","[British, Hamburger, Fast Food, Western]",$51-100,"Shop A, G/F, 55 Peel Street, Soho",98,93.0,0.0,4.015306,3386,22.2825515,114.152606
Amber,/en/hongkong/r-amber-central-french-meatless-menu-r14483/reviews,Central,1003,"[3010, 1008, 1011, 1, 1073, 7, 1200]","[French, Wine, Hotel Restaurant, Romantic Dining, Meatless Menu, Special Occasion Dining, Fine Dining]",Above $801,"7/F, The Landmark Mandarin Oriental, 15 Queen's Road",193,149.0,6.0,4.221978,11581,22.280912,114.157598
Manya Japanese Restaurant 滿屋日本料理,/en/hongkong/r-manya-japanese-restaurant-causeway-bay-japanese-all-you-can-eat-r105816/reviews,Causeway Bay,1019,"[2009, 1076]","[Japanese, All-you-can-eat]",$201-400,"8/F, Causeway Bay Plaza 2, 463-483 Lockhart Road",278,202.0,24.0,3.7328300000000003,8593,22.2805768944,114.18217179700001
Royal Legend 御名軒,/en/hongkong/r-royal-legend-tin-hau-guangdong-seafood-r48355/reviews,Tin Hau,1026,"[1002, 1009, 1005, 1016]","[Guangdong, Seafood, Dim Sum Restaurant, Fine Dried Seafood]",$51-100,"1/F, Golden Court, 22-52 Electric Road",230,172.0,3.0,3.802343,1965,22.2831308727,114.19198840899999
Tartes & Pop,/en/hongkong/r-tartes-pop-sheung-wan-french-cake-r465394/reviews,Sheung Wan,1001,"[3010, 1203, 1027]","[French, Cake, Chocolate/Candy Shop]",Below $50,"G/F, 2 Morrison Street",136,121.0,0.0,4.3496,2977,22.2873165,114.15062739999999
金樂軒雞煲魚鍋,/en/hongkong/r-%E9%87%91%E6%A8%82%E8%BB%92%E9%9B%9E%E7%85%B2%E9%AD%9A%E9%8D%8B-north-point-sichuan-chicken-hot-pot-r445883/reviews,North Point,1004,"[1008, 1001, 1011, 1074]","[Sichuan, Hot Pot, Shanghai, Chicken Hot Pot]",$101-200,"Shop C3, G/F, Conwell Mansion, 114 Wharf Road",105,99.0,1.0,4.262135,1404,22.2922222102,114.19797644
Lai Bun Fu 禮賓傅,/en/hongkong/r-lai-bun-fu-central-guangdong-fine-dried-seafood-r193418/reviews,Central,1003,"[1002, 1016, 1001]","[Guangdong, Fine Dried Seafood, Stir-Fry]",$401-800,"5/F, 18 On Lan Street",174,150.0,10.0,3.94049,3725,22.280606699999996,114.1568126
Kikusan,/en/hongkong/r-kikusan-causeway-bay-japanese-r501047/reviews,Causeway Bay,1019,[2009],[Japanese],$101-200,"Shop 1301, 13/F, Hysan Place, 500 Hennessy Road",92,64.0,1.0,3.9164830000000004,5877,22.279734757600004,114.183644056
Passion by Gerard Dubois,/en/hongkong/r-passion-by-gerard-dubois-wan-chai-french-cake-r487485/reviews,Wan Chai,1022,"[3010, 1026, 1008, 11, 1203]","[French, Sandwich, Coffee Shop, Casual Drink, Cake]",$51-100,"Shop G11, G12 & F12A, Lee Tung Avenue, 200 Queen’s Road East",118,94.0,4.0,3.864035,4806,22.2755227984,114.172228575
Kuma Ramen 熊拉麵,/en/hongkong/r-kuma-ramen-sheung-wan-japanese-ramen-r492825/reviews,Sheung Wan,1001,"[2009, 1005]","[Japanese, Ramen]",$51-100,84 Jervois Street,119,104.0,3.0,4.015254,1802,22.2850283,114.151226
Alto,/en/hongkong/r-alto-causeway-bay-western-r498914/reviews,Causeway Bay,1019,"[4000, 1003]","[Western, Steak House]",$201-400,"31/F, V Point, 18 Tang Lung Street",89,45.0,10.0,3.6917800000000005,13306,22.279011669899997,114.18161764700001
Noodies,/en/hongkong/r-noodies-western-district-international-food-stall-noodles-r455801/reviews,Western District,1008,"[6000, 1004, 1083, 1010, 1039]","[International, Food Stall Noodles, Food Wise Eateries, Noodles/Rice Noodles, Wonton/Dumpling]",Below $50,"Shop E, G/F, Fook Moon Building, 56 Third Street, Sai Ying Pun",127,99.0,9.0,3.6512290000000003,2865,22.2856115798,114.141997456
Small Potato 薯仔屋,/en/hongkong/r-small-potato-causeway-bay-western-r15055/reviews,Causeway Bay,1019,"[4000, 1008, 4001, 1024]","[Western, Coffee Shop, American, Upper-floor Cafe]",$101-200,"4/F, 4 Sun Wui Road",169,146.0,8.0,3.99537,2197,22.2774960066,114.18478131299999
1963 木十豆寸,/en/hongkong/r-1963-%E6%9C%A8%E5%8D%81%E8%B1%86%E5%AF%B8-wan-chai-taiwan-r487324/reviews,Wan Chai,1022,"[1009, 1001]","[Taiwan, Stir-Fry]",$101-200,"2/F, Chung Wui Mansion, 110 Wan Chai Road",140,70.0,28.0,3.382089,12140,22.2767779,114.175329
Tsukemen Mitaseimenjo 三田製麵所,/en/hongkong/r-tsukemen-mitaseimenjo-causeway-bay-japanese-ramen-r435677/reviews,Causeway Bay,1019,"[2009, 1005]","[Japanese, Ramen]",$51-100,"G/F, Soundwill Plaza 2 - Midtown, 1-29 Tang Lung Street",254,119.0,39.0,3.3428269999999998,7135,22.278954565,114.18221443899999
Cafe YAWN,/en/hongkong/r-cafe-yawn-causeway-bay-western-meatless-menu-r174126/reviews,Causeway Bay,1019,"[4000, 1003, 1008, 1014, 1073]","[Western, Bakery, Coffee Shop, Dessert, Meatless Menu]",$51-100,"G/F, No 9, Haven Street",124,85.0,5.0,3.619008,6359,22.277840700000002,114.1867889
Teakha 茶。家,/en/hongkong/r-teakha-sheung-wan-western-bakery-r81298/reviews,Sheung Wan,1001,"[4000, 1003, 1029, 1203]","[Western, Bakery, Tea House, Cake]",$51-100,"G/F, 18B Tai Ping Shan Road",207,136.0,10.0,3.741282,16892,22.2845008,114.14857930000001
Betsutenjin 博多拉麵別天神,/en/hongkong/r-betsutenjin-causeway-bay-japanese-ramen-r125552/reviews,Causeway Bay,1019,"[2009, 1005]","[Japanese, Ramen]",$51-100,"Shop 3A, G/F, 277 Gloucester Road",169,128.0,7.0,3.787878,4057,22.2819742,114.18332959999998
Granville Island Hong Kong,/en/hongkong/r-granville-island-hong-kong-western-district-international-seafood-r344433/reviews,Western District,1008,"[6000, 1009, 1003, 1006]","[International, Seafood, Steak House, Western Restaurant]",$201-400,"G/F, 64 High Street, Sai Ying Pun",163,144.0,8.0,3.869565,4392,22.2851,114.14153999999999
Lady M,/en/hongkong/r-lady-m-central-western-bakery-r470506/reviews,Central,1003,"[4000, 1003, 1008]","[Western, Bakery, Coffee Shop]",$51-100,"Shop 2096A, 2/F, IFC, 1 Harbour View Street",129,80.0,4.0,3.7530989999999997,4522,22.285127,114.156954
KS Cafe,/en/hongkong/r-ks-cafe-tin-hau-western-r479353/reviews,Tin Hau,1026,"[4000, 1006, 1008]","[Western, Western Restaurant, Coffee Shop]",$101-200,"7/F, Morecrown Commercial Building, 108 Electric Road",114,107.0,2.0,3.96875,2195,22.285042,114.1918169
Jiang's Hunan chef 湘聚小廚,/en/hongkong/r-jiangs-hunan-chef-western-district-hunan-r445386/reviews,Western District,1008,"[1013, 1040, 1001]","[Hunan, Hot Chili Oil, Stir-Fry]",$51-100,"G/F, Fu Ga Building, 13 Yat Fu Lane",138,121.0,5.0,3.952307,2510,22.2858402599,114.133921266
Smile Yogurt & Dessert Bar,/en/hongkong/r-smile-yogurt-dessert-bar-causeway-bay-western-ice-cream-yogurt-r109262/reviews,Causeway Bay,1019,"[4000, 1014, 1015]","[Western, Dessert, Ice Cream/yogurt]",$51-100,"Shop 509, 5/F, Hysan Place, 500 Hennessy Road",180,138.0,2.0,3.7570580000000002,3482,22.279889069099998,114.18360099700001
Kyo Hayashiya 京林屋,/en/hongkong/r-kyo-hayashiya-causeway-bay-japanese-dessert-r527910/reviews,Causeway Bay,1019,"[2009, 1014]","[Japanese, Dessert]",$51-100,"Shop 1203, 12/F, Hysan Place, 500 Hennessy Road",147,128.0,2.0,4.06875,2016,22.279889069099998,114.18360099700001
Camper's 坐忘,/en/hongkong/r-campers-quarry-bay-japanese-meatless-menu-r106726/reviews,Quarry Bay,1014,"[2009, 1005, 1037, 1073]","[Japanese, Ramen, Udon, Meatless Menu]",$51-100,"Shop 13, G/F, Chung Hing Mansion, 13 Pan Hoi Street",152,115.0,6.0,3.711301,6850,22.2865076656,114.21105215
Daikiya Japanese Restaurant 大喜屋日本料理,/en/hongkong/r-daikiya-japanese-restaurant-causeway-bay-japanese-all-you-can-eat-r136358/reviews,Causeway Bay,1019,"[2009, 1076, 1083]","[Japanese, All-you-can-eat, Food Wise Eateries]",$201-400,"7/F, Goldmark, 502 Hennessy Road",148,121.0,5.0,3.953928,6547,22.279866000000002,114.18421399999998
Bread Street Kitchen & Bar,/en/hongkong/r-bread-street-kitchen-bar-central-western-r182161/reviews,Central,1003,"[3009, 1011, 4000]","[British, Hotel Restaurant, Western]",$401-800,"Level M, Hotel LKF by Rhombus, 33 Wyndham Street, Lan Kwai Fong",152,97.0,12.0,3.7211800000000004,12499,22.280424,114.15513100000001
Wing Kee Noodle 榮記粉麵,/en/hongkong/r-wing-kee-noodle-causeway-bay-hong-kong-style-food-stall-noodles-r11415/reviews,Causeway Bay,1019,"[1004, 1004, 1010]","[Hong Kong Style, Food Stall Noodles, Noodles/Rice Noodles]",Below $50,"G/F, 27A Sugar Street",318,180.0,25.0,3.314406,9622,22.279908,114.186699
Goobne Chicken,/en/hongkong/r-goobne-chicken-central-korean-korean-fried-chicken-r503140/reviews,Central,1003,"[2001, 1085]","[Korean, Korean Fried Chicken]",$101-200,"5/F, M88, Wellington Place, 2-8 Wellington Street",111,95.0,5.0,4.170093,4477,22.280797974299997,114.15606586700001
Katsuhachi 勝八居酒屋,/en/hongkong/r-katsuhachi-causeway-bay-japanese-udon-r192105/reviews,Causeway Bay,1019,"[2009, 1034, 1037, 1072]","[Japanese, Sushi/Sashimi, Udon, Skewer]",$101-200,"11/F., Circle Tower, 28 Tang Lung Street",129,112.0,4.0,3.9968,3539,22.2792599,114.1820404
Florahouse 花子舍,/en/hongkong/r-florahouse-causeway-bay-western-r520171/reviews,Causeway Bay,1019,"[4000, 1003, 1008]","[Western, Steak House, Coffee Shop]",$101-200,"Shop 2-3, G/F, Parkview Commercial Building, 9-11 Shelter Street",117,97.0,2.0,3.94375,5592,22.2792359,114.18857659999998
Sakana Gozen 坂奈,/en/hongkong/r-sakana-gozen-causeway-bay-japanese-seafood-r529458/reviews,Causeway Bay,1019,"[2009, 1009, 1034]","[Japanese, Seafood, Sushi/Sashimi]",$101-200,"Shop E, G/F, Always Centre, 468 Jaffe Road",123,117.0,0.0,4.209016,1703,22.280676,114.18199750000001
Le Marron,/en/hongkong/r-le-marron-causeway-bay-french-seafood-r16065/reviews,Causeway Bay,1019,"[3010, 1009, 1006, 1]","[French, Seafood, Western Restaurant, Romantic Dining]",$201-400,"12/F Ying Kong Mansion, 2-6 Yee Wo Street",236,201.0,11.0,3.887826,6790,22.2799564796,114.184738398
Townhouse,/en/hongkong/r-townhouse-central-international-r447018/reviews,Central,1003,"[6000, 1006]","[International, Western Restaurant]",$201-400,"23/F, California Tower, 30-32 D'Aguilar Street, Lan Kwai Fong",118,85.0,7.0,3.717924,7902,22.2808830498,114.155529141
Green Waffle Diner,/en/hongkong/r-green-waffle-diner-causeway-bay-western-all-day-breakfast-r514588/reviews,Causeway Bay,1019,"[4000, 1014, 1006, 4001, 1075, 1008]","[Western, Dessert, Western Restaurant, American, All Day Breakfast, Coffee Shop]",$101-200,"Shop 1303, 13/G, Hysan Place, 500 Hennessy Road",127,99.0,3.0,3.8475599999999996,2773,22.279889069099998,114.18360099700001
Rock Salt Japanese Restaurant 岩鹽日本料理,/en/hongkong/r-rock-salt-japanese-restaurant-causeway-bay-japanese-seafood-r536937/reviews,Causeway Bay,1019,"[2009, 1009, 1034]","[Japanese, Seafood, Sushi/Sashimi]",$101-200,"ShopA, 16/F, Lee Theatre Plaza, 99 Percival Street",125,108.0,3.0,4.095121,4650,22.278328,114.18314099999999
坤記煲仔小菜,/en/hongkong/r-%E5%9D%A4%E8%A8%98%E7%85%B2%E4%BB%94%E5%B0%8F%E8%8F%9C-western-district-guangdong-r13356/reviews,Western District,1008,"[1002, 1001]","[Guangdong, Stir-Fry]",$51-100,"Shop 1, Wo Yick Mansion, 263 Queen's Road West, Sai Ying Pun",243,167.0,16.0,3.6027769999999997,14003,22.2869620549,114.143040776
Seorae 喜來稀肉,/en/hongkong/r-seorae-causeway-bay-korean-korean-bbq-r487837/reviews,Causeway Bay,1019,"[2001, 1025, 1086]","[Korean, Roast Meat, Korean BBQ]",$101-200,"Shop 3, G/F & 1/F, Golden Dragon Building, 41-51 Tang Lung Street",73,64.0,1.0,4.008571,5538,22.27923,114.1825831
Hainan South 南駅,/en/hongkong/r-hainan-south-shau-kei-wan-international-r459958/reviews,Shau Kei Wan,1018,"[6000, 1083]","[International, Food Wise Eateries]",$101-200,"Shop 13, G/F, Eastway Towers, 59-99 Shau Kei Wan Main Street",132,102.0,4.0,3.942818,3317,22.2798379677,114.230280568
Bak Kut King 肉骨皇,/en/hongkong/r-bak-kut-king-tai-hang-singaporean-herbal-cuisine-r37813/reviews,Tai Hang,1025,"[2005, 1031, 5]","[Singaporean, Herbal Cuisine, Drivers Friendly Dining]",$101-200,"Shop 1, G/F, Wan Sha Tower, 45 Wun Sha Street",213,153.0,25.0,3.645343,4808,22.278276,114.19320900000001
Season Oyster & Wine Bar,/en/hongkong/r-season-oyster-wine-bar-causeway-bay-western-wine-r524187/reviews,Causeway Bay,1019,"[4000, 1008, 1010, 6000, 1009, 1032]","[Western, Wine, Bar, International, Seafood, Oyster Bar]",$101-200,"G/F, 14 Shelter Street",139,128.0,3.0,4.0426470000000005,1960,22.279007999999997,114.188484
Lee House Restaurant 李公館,/en/hongkong/r-lee-house-restaurant-wan-chai-guangdong-dim-sum-r49281/reviews,Wan Chai,1022,"[1002, 1036, 1001, 6]","[Guangdong, Dim Sum, Stir-Fry, Group Dining]",$201-400,"2/F, OfficePlus@WanChai, 303 Hennessy Road",204,149.0,13.0,3.944642,9813,22.2782815977,114.177722665
On On BBQ 安安燒,/en/hongkong/r-on-on-bbq-shau-kei-wan-hong-kong-style-seafood-r161905/reviews,Shau Kei Wan,1018,"[1004, 1009, 1035, 1008, 1072]","[Hong Kong Style, Seafood, Skewer, Sichuan, Skewer]",$101-200,"Shop A, G/F., Lei King Mansion, 93 Nam On Street",154,133.0,5.0,3.9630870000000002,2514,22.279348300000002,114.226469
Omotesando Koffee,/en/hongkong/r-omotesando-koffee-wan-chai-western-r480444/reviews,Wan Chai,1022,"[4000, 1008]","[Western, Coffee Shop]",Below $50,"Shop G24-25, Lee Tung Avenue, 200 Queen's Road East",106,54.0,7.0,3.682352,10678,22.275234028200003,114.17214810799999
Chez Bistro,/en/hongkong/r-chez-bistro-causeway-bay-western-r514115/reviews,Causeway Bay,1019,"[4000, 1006, 6000]","[Western, Western Restaurant, International]",$201-400,"21/F, Bartlock Centre, 3 Yiu Wa St",132,128.0,0.0,4.242424,3113,22.2776846389,114.18218627600001
Wah Kee Store 華記士多,/en/hongkong/r-wah-kee-store-sai-wan-ho-hong-kong-style-r449715/reviews,Sai Wan Ho,1009,"[1004, 1009]","[Hong Kong Style, Tea Restaurant]",Below $50,"Shop 3B, G/F, 48 Shau Kei Wan Road",104,79.0,1.0,3.7415839999999996,6596,22.283329000000002,114.22068
Qǐng Zuò 請坐,/en/hongkong/r-q-ng-zuo-western-district-taiwan-r510263/reviews,Western District,1008,"[1009, 1001]","[Taiwan, Stir-Fry]",$101-200,"Shop 2-3, G/F, Wah Fai Court, 1-6 Ying Wa Terrace, Sai Ying Pun",69,32.0,4.0,3.605468,10532,22.2849306562,114.142382294
Shelter Italian Bar & Restaurant,/en/hongkong/r-shelter-italian-bar-restaurant-causeway-bay-italian-seafood-r152984/reviews,Causeway Bay,1019,"[3006, 1003, 1006, 1009, 1010, 1022]","[Italian, Bakery, Western Restaurant, Seafood, Bar, Pizza]",$201-400,"Shop No. 718-719, 7/F, Hysan Place, 500 Hennessy Road",184,111.0,19.0,3.6664769999999995,8859,22.279574753400002,114.18394906799999
Cats' eye 貓之眼,/en/hongkong/r-cats-eye-wan-chai-japanese-curry-r189381/reviews,Wan Chai,1022,"[2009, 1033, 1021]","[Japanese, Curry, Yoshoku]",$51-100,"G/F, 25 Swatow Street",147,94.0,11.0,3.702112,8838,22.2754671,114.17157150000001
Dragon Noodles Academy 龍麵館,/en/hongkong/r-dragon-noodles-academy-central-guangdong-chinese-bbq-r511716/reviews,Central,1003,"[1002, 1010, 1020, 1036]","[Guangdong, Noodles/Rice Noodles, Chinese BBQ, Dim Sum]",$201-400,"Shop G04, G/F, Man Yee Arcade, Man Yee Building, 68 Des Voeux Road",128,86.0,11.0,3.8604160000000003,6278,22.2835247,114.1559824
Postcollectionhk Cafe 香港郵意明信片航海主題咖啡廳,/en/hongkong/r-postcollectionhk-cafe-wan-chai-international-all-day-breakfast-r493881/reviews,Wan Chai,1022,"[6000, 1014, 1008, 1075, 1203]","[International, Dessert, Coffee Shop, All Day Breakfast, Cake]",$51-100,"Shop D, G/F, On Lok Lane, Wan Chai",147,102.0,14.0,3.60639,4594,22.2780883,114.17852409999999
MeokBang Korean BBQ & BAR 炑八韓烤,/en/hongkong/r-meokbang-korean-bbq-bar-causeway-bay-korean-korean-bbq-r437253/reviews,Causeway Bay,1019,"[2001, 1025, 1086]","[Korean, Roast Meat, Korean BBQ]",$201-400,"6/F, Goldmark, 502 Hennessy Road",133,85.0,13.0,3.6441660000000002,5004,22.2798656,114.1842553
Samsen 泰麵,/en/hongkong/r-samsen-%E6%B3%B0%E9%BA%B5-wan-chai-thai-noodles-rice-noodles-r501357/reviews,Wan Chai,1022,"[2004, 1010]","[Thai, Noodles/Rice Noodles]",$101-200,"G/F, 68 Stone Nullah Lane",56,38.0,3.0,4.0,10444,22.2741719,114.17402340000001
LOF10 Bar Dining 辦館,/en/hongkong/r-lof10-bar-dining-causeway-bay-international-all-day-breakfast-r513278/reviews,Causeway Bay,1019,"[6000, 1008, 1075]","[International, Wine, All Day Breakfast]",$101-200,"Shop 302, 3/F, Tower 535, 535 Jaffe Road",134,108.0,12.0,3.75,3634,22.281149399999997,114.18392469999999
La Postre,/en/hongkong/r-la-postre-causeway-bay-international-dessert-r515208/reviews,Causeway Bay,1019,"[3011, 1014, 6000]","[Spanish, Dessert, International]",$101-200,"19/F, Bartlock Centre, 3-9 Yiu Wa Street",120,100.0,3.0,3.923728,5095,22.2776846389,114.182178229
Greenhouse,/en/hongkong/r-greenhouse-causeway-bay-western-skewer-r467325/reviews,Causeway Bay,1019,"[4000, 1072, 1006, 1035]","[Western, Skewer, Western Restaurant, Skewer]",$101-200,"Shop 1004, 10/F, Food Forum, Times Square,1 Matheson Street",128,95.0,8.0,3.82459,4946,22.2781159628,114.182265101
Cafe de Paris Est. in Korea,/en/hongkong/r-cafe-de-paris-est-in-korea-causeway-bay-korean-dessert-r512681/reviews,Causeway Bay,1019,"[2001, 1014, 1203]","[Korean, Dessert, Cake]",$51-100,"Shop 5, G/F, V Point, 18 Tang Lung Street",119,86.0,4.0,3.884615,4133,22.2790162267,114.181551933
Ronin Japanese Cuisine 浪人日本料理,/en/hongkong/r-ronin-japanese-cuisine-central-japanese-omakase-r470697/reviews,Central,1003,"[2009, 1034, 1205]","[Japanese, Sushi/Sashimi, Omakase]",$201-400,"6/F, M88, Wellington Place, 2-8 Wellington Street",122,104.0,4.0,4.040707,4814,22.2807986,114.15605490000002
Yakiniku Futago HK Futago HK大阪燒肉,/en/hongkong/r-yakiniku-futago-hk-causeway-bay-japanese-roast-meat-r167987/reviews,Causeway Bay,1019,"[2009, 1025]","[Japanese, Roast Meat]",$201-400,"Shop B, G/F, 1-5 Irving Street",61,53.0,0.0,3.9966660000000003,11277,22.278807500000003,114.18627020000001
Speechify 飼說,/en/hongkong/r-speechify-causeway-bay-western-salad-r501548/reviews,Causeway Bay,1019,"[4000, 1075, 1024, 6000, 1081]","[Western, All Day Breakfast, Upper-floor Cafe, International, Salad]",$101-200,"2/F, Hong Kong Chinese Bank Causeway Bay Centre, 42-44 Yee Wo Street",119,76.0,11.0,3.597222,8330,22.2795905,114.18570590000002
Meat King,/en/hongkong/r-meat-king-causeway-bay-japanese-r509016/reviews,Causeway Bay,1019,"[2009, 1003, 4001, 1021]","[Japanese, Steak House, American, Yoshoku]",$101-200,"1/F, 1 Irving Street",121,102.0,3.0,3.957894,3965,22.278889219099998,114.18627128
Jan Jan Kushikatsu Jan Jan 串揚專門店,/en/hongkong/r-jan-jan-kushikatsu-wan-chai-japanese-skewer-r480465/reviews,Wan Chai,1022,"[2009, 1072, 1033]","[Japanese, Skewer, Izakaya]",$201-400,"2/F, 100 Queen's Road East",81,68.0,0.0,4.084,7915,22.2762493,114.1700685
Sonata Western Restaurant 協奏坊西餐廳,/en/hongkong/r-sonata-western-restaurant-causeway-bay-international-buffet-r438941/reviews,Causeway Bay,1019,"[6000, 1032, 1011]","[International, Buffet, Hotel Restaurant]",$201-400,"2/F, Rosedale Hotel Hong Kong, Shelter Street",120,82.0,11.0,3.646818,7842,22.2792,114.18830759999999
On-Yasai 温野菜,/en/hongkong/r-on-yasai-causeway-bay-japanese-meatless-menu-r489105/reviews,Causeway Bay,1019,"[2009, 1001, 1073]","[Japanese, Hot Pot, Meatless Menu]",$101-200,"4/F, Plaza 2000, 8 Canal Road East",76,58.0,1.0,4.054166,4819,22.2786395,114.1815929
新南苑私房菜火鍋鷄煲,/en/hongkong/r-%E6%96%B0%E5%8D%97%E8%8B%91%E7%A7%81%E6%88%BF%E8%8F%9C%E7%81%AB%E9%8D%8B%E9%B7%84%E7%85%B2-wan-chai-hong-kong-style-chicken-hot-pot-r527840/reviews,Wan Chai,1022,"[1004, 1001, 1008, 1074]","[Hong Kong Style, Hot Pot, Sichuan, Chicken Hot Pot]",$201-400,"2/F, One Capital Place, 18 Luard Road",98,91.0,0.0,4.237234,2443,22.278466,114.171843
Cafe R&C,/en/hongkong/r-cafe-r-c-causeway-bay-western-r106845/reviews,Causeway Bay,1019,"[4000, 1008, 8]","[Western, Coffee Shop, Private Party]",$51-100,"G/F, 22-24 Haven Street",170,92.0,15.0,3.417592,11007,22.277903054899998,114.186862707
Iwanami Japanese Restaurant 岩浪天扶良日本料理,/en/hongkong/r-iwanami-japanese-restaurant-causeway-bay-japanese-omakase-r19033/reviews,Causeway Bay,1019,"[2009, 1034, 2, 1205]","[Japanese, Sushi/Sashimi, Business Dining, Omakase]",$401-800,"9/F, Macau Yat Yuen Centre, 525 Hennessy Road",153,126.0,13.0,4.0,3021,22.280332,114.18376200000002
AMMO,/en/hongkong/r-ammo-admiralty-spanish-wine-r100647/reviews,Admiralty,1011,"[3011, 1008, 1010, 1, 7]","[Spanish, Wine, Bar, Romantic Dining, Special Occasion Dining]",$201-400,"Lower Level, Asia Society Hong Kong Center, 9 Justice Drive",128,92.0,10.0,3.7775,7984,22.2759447587,114.165353626
Sevva,/en/hongkong/r-sevva-central-western-fine-dining-r22241/reviews,Central,1003,"[4000, 1014, 1006, 11, 1200]","[Western, Dessert, Western Restaurant, Casual Drink, Fine Dining]",Above $801,"25/F Prince's Building, 10 Chater Road",243,122.0,27.0,3.6961730000000004,15927,22.281208,114.15918300000001
Betsutenjin 博多拉麵別天神,/en/hongkong/r-betsutenjin-wan-chai-japanese-ramen-r491557/reviews,Wan Chai,1022,"[2009, 1005]","[Japanese, Ramen]",$51-100,"G/F, 113 Johnston Road",90,79.0,1.0,3.8534089999999996,1074,22.2766065,114.172999
Lex Coffee,/en/hongkong/r-lex-coffee-western-district-western-r449771/reviews,Western District,1008,"[4000, 1008]","[Western, Coffee Shop]",$51-100,"G/F, 100 Belcher's Street, Kennedy Town",119,88.0,6.0,3.7581809999999995,5476,22.282514531500002,114.128031135
A La Umai,/en/hongkong/r-a-la-umai-tin-hau-french-wine-r21003/reviews,Tin Hau,1026,"[3010, 1008, 1006, 7, 1009, 8]","[French, Wine, Western Restaurant, Special Occasion Dining, Seafood, Private Party]",$401-800,"25/F, Morecrown Comm. Bldg, 108 Electric Road",201,150.0,12.0,3.9142099999999997,6469,22.285049,114.19181299999998
JK Kitchen,/en/hongkong/r-jk-kitchen-causeway-bay-vietnamese-noodles-rice-noodles-r475390/reviews,Causeway Bay,1019,"[2002, 1010]","[Vietnamese, Noodles/Rice Noodles]",$51-100,"17/F, Circle Tower, 28 Tang Lung Street",112,86.0,10.0,3.723584,2735,22.2792810896,114.18203307600001
COFFEEHOLIC by Smith Group Taipei,/en/hongkong/r-coffeeholic-by-smith-group-taipei-sheung-wan-western-all-day-breakfast-r501583/reviews,Sheung Wan,1001,"[4000, 1075, 1008, 6000]","[Western, All Day Breakfast, Coffee Shop, International]",$51-100,"Shop C, G/F, Carbo Mansion, 126-128 Jervois Street",78,61.0,4.0,3.994871,4189,22.2857546,114.1502278
Yi Pai Ya 一杯屋,/en/hongkong/r-yi-pai-ya-causeway-bay-japanese-robatayaki-r47826/reviews,Causeway Bay,1019,"[2009, 1028, 1033, 1072]","[Japanese, Robatayaki, Izakaya, Skewer]",$201-400,"8/F, Macau Yat Yuen Centre, 525 Hennessy Road",113,106.0,1.0,4.037272,2625,22.280336206399998,114.18375000399999
Dazzling Cafe,/en/hongkong/r-dazzling-cafe-causeway-bay-taiwan-dessert-r479430/reviews,Causeway Bay,1019,"[1009, 1014]","[Taiwan, Dessert]",$101-200,"Shop 313-314, 3/F, Windsor House, 311 Gloucester Road",128,68.0,8.0,3.668103,3473,22.280374,114.1865
Café Malacca 馬來一菜館,/en/hongkong/r-cafe-malacca-western-district-malaysian-r112143/reviews,Western District,1008,"[2024, 1011, 6, 7]","[Malaysian, Hotel Restaurant, Group Dining, Special Occasion Dining]",$101-200,"Level 2, Hotel Jen Hong Kong, 508 Queen's Road West",177,98.0,5.0,3.8629029999999998,7761,22.285972154699998,114.13493515200001
ChangLe Vegetarian Restaurant 常樂素食,/en/hongkong/r-changle-vegetarian-restaurant-causeway-bay-taiwan-vegetarian-r432082/reviews,Causeway Bay,1019,"[1009, 1011, 1001, 1031]","[Taiwan, Vegetarian, Stir-Fry, Herbal Cuisine]",$101-200,"7/F, The L. Square, 459-461 Lockhart Road",86,68.0,5.0,3.6743900000000003,3283,22.2803352896,114.18186636600001
Ramen Jo 拉麵Jo,/en/hongkong/r-ramen-jo-causeway-bay-japanese-ramen-r111602/reviews,Causeway Bay,1019,"[2009, 1005]","[Japanese, Ramen]",$51-100,"G/F, 3 Caroline Hill Road",162,116.0,6.0,3.755696,4885,22.2775185,114.186411
Elephant Grounds,/en/hongkong/r-elephant-grounds-causeway-bay-international-r474138/reviews,Causeway Bay,1019,"[6000, 1008]","[International, Coffee Shop]",Below $50,"Shop C, G/F, 42-48 Paterson Street, Fashion Walk",74,46.0,6.0,3.5763879999999997,6688,22.2816999,114.1852825
FRITES Belgium on Tap,/en/hongkong/r-frites-belgium-on-tap-central-belgian-r449638/reviews,Central,1003,"[3013, 1006]","[Belgian, Western Restaurant]",$201-400,"1/F, The Wellington, 198 Wellington Street",94,77.0,3.0,3.9816089999999997,4474,22.2849418246,114.15313661100001
Siam 28,/en/hongkong/r-siam-28-causeway-bay-thai-curry-r464664/reviews,Causeway Bay,1019,"[2004, 1009, 1033]","[Thai, Seafood, Curry]",$201-400,"28/F, Macau Yat Yuen Centre, 525 Hennessy Road",92,77.0,2.0,4.072093,4758,22.280346948600002,114.183783531
Tung Po 東寶小館,/en/hongkong/r-tung-po-north-point-guangdong-seafood-r3847/reviews,North Point,1004,"[1002, 1009, 1016, 6]","[Guangdong, Seafood, Dai Pai Dong, Group Dining]",$101-200,"2/F Java Road Municipal Services Building, 99 Java Road",490,310.0,58.0,3.3593879999999996,12496,22.292332647800002,114.19945031399999
Clipper Lounge 快船廊,/en/hongkong/r-clipper-lounge-central-western-buffet-r494/reviews,Central,1003,"[4000, 1032, 1011]","[Western, Buffet, Hotel Restaurant]",$401-800,"M/F, Mandarin Oriental Hong Kong, 5 Connaught Road Central",399,245.0,45.0,3.808446,9463,22.281886605300002,114.159447849
Blue Brick Bistro,/en/hongkong/r-blue-brick-bistro-wan-chai-western-r482950/reviews,Wan Chai,1022,[4000],[Western],$201-400,"Shop G35, G/F, Lee Tung Avenue, 200 Queen's Road East",115,77.0,7.0,3.7780370000000003,3789,22.2758479453,114.172333851
幸屋,/en/hongkong/r-%E5%B9%B8%E5%B1%8B-wan-chai-japanese-ramen-r530978/reviews,Wan Chai,1022,"[2009, 1005]","[Japanese, Ramen]",$51-100,"G/F, Wai Cheong Building, 5-9A Gresson Street",115,105.0,3.0,3.960267,1343,22.2767866,114.16987560000001
Mezze 7 七重天,/en/hongkong/r-mezze-7-causeway-bay-western-wine-r434637/reviews,Causeway Bay,1019,"[4000, 1008, 1010, 6000]","[Western, Wine, Bar, International]",$101-200,"19/F, Circle Tower, 28 Tang Lung Street",96,93.0,1.0,4.040217,1550,22.2792810896,114.18203307600001
Isono Suisan 磯野水產,/en/hongkong/r-isono-suisan-causeway-bay-japanese-seafood-r532123/reviews,Causeway Bay,1019,"[2009, 1009, 1033, 1034]","[Japanese, Seafood, Izakaya, Sushi/Sashimi]",$201-400,"19/F, Macau Yat Yuen Centre, 525 Hennessy Road",105,103.0,1.0,4.450476,1257,22.280332,114.18376200000002
Mon Kee Cafe 旺記冰室,/en/hongkong/r-mon-kee-cafe-wan-chai-hong-kong-style-r511947/reviews,Wan Chai,1022,"[1004, 1009]","[Hong Kong Style, Tea Restaurant]",Below $50,"G/F, Kin Lee Building, 142 Jaffe Road",93,65.0,3.0,3.900561,4653,22.2787145,114.17374579999999
Shanghai Lane 上海弄堂菜肉餛飩,/en/hongkong/r-shanghai-lane-wan-chai-shanghai-r513891/reviews,Wan Chai,1022,"[1011, 1001]","[Shanghai, Stir-Fry]",$51-100,"G/F, Kam Fung Commercial Building, 2-4 Tin Lok Lane",87,76.0,2.0,3.9360459999999997,1338,22.2783375,114.17949140000002
Hong Kong Cuisine 壹玖捌叁,/en/hongkong/r-hong-kong-cuisine-happy-valley-guangdong-dim-sum-r87395/reviews,Happy Valley,1017,"[1002, 1016, 1001, 1036]","[Guangdong, Fine Dried Seafood, Stir-Fry, Dim Sum]",$201-400,"1/F, 2-4 Tsoi Tak Street",106,96.0,1.0,4.163809,3515,22.2695017352,114.18570560200001
LAB EAT Restaurant & Bar,/en/hongkong/r-lab-eat-restaurant-bar-tsim-sha-tsui-western-seafood-r452499/reviews,Tsim Sha Tsui,2008,"[4000, 1009, 1010, 1, 1032, 11]","[Western, Seafood, Bar, Romantic Dining, Oyster Bar, Casual Drink]",$201-400,"Shop 1-2, G/F, Kiu Fung Mansion, 83-89 Kimberlay Road",446,354.0,23.0,3.866281,35989,22.302616,114.1754575
CHEF STAGE de Eddy Chu,/en/hongkong/r-chef-stage-de-eddy-chu-tsim-sha-tsui-western-wine-r434117/reviews,Tsim Sha Tsui,2008,"[4000, 1008, 6000, 1009]","[Western, Wine, International, Seafood]",$401-800,"19/F, 17-19 Ashley Road",574,526.0,14.0,4.10196,21320,22.2969766,114.17030849999999
HeSheEat,/en/hongkong/r-hesheeat-mong-kok-western-ice-cream-yogurt-r147924/reviews,Mong Kok,2010,"[4000, 1014, 1015]","[Western, Dessert, Ice Cream/yogurt]",$51-100,"Shop 4, G/F, Ngai Hing Mansion, 22 Pak Po Street",703,486.0,39.0,3.721248,26232,22.317606,114.1730947
The Captain's House,/en/hongkong/r-the-captains-house-tsim-sha-tsui-western-seafood-r177602/reviews,Tsim Sha Tsui,2008,"[4000, 1009, 1032, 4001]","[Western, Seafood, Oyster Bar, American]",$201-400,"18/F, H8, 8 Hau Fook Street",413,324.0,21.0,3.860375,25127,22.2995907,114.1745665
Goobne Chicken,/en/hongkong/r-goobne-chicken-tsim-sha-tsui-korean-korean-fried-chicken-r188593/reviews,Tsim Sha Tsui,2008,"[2001, 1085]","[Korean, Korean Fried Chicken]",$101-200,"2/F, The HART, 4 Hart Avenue",433,328.0,15.0,3.856642,29846,22.297937899999997,114.17456340000001
七福神和食亭,/en/hongkong/r-%E4%B8%83%E7%A6%8F%E7%A5%9E%E5%92%8C%E9%A3%9F%E4%BA%AD-jordan-japanese-ramen-r452625/reviews,Jordan,2028,"[2009, 1005, 1034]","[Japanese, Ramen, Sushi/Sashimi]",$101-200,"1/F, 311-313 Nathan Road",560,465.0,25.0,3.8249089999999994,12303,22.3060609702,114.17132198799999
Espuma,/en/hongkong/r-espuma-tsim-sha-tsui-international-dessert-r175038/reviews,Tsim Sha Tsui,2008,"[3011, 1014, 1008, 6000, 1024]","[Spanish, Dessert, Coffee Shop, International, Upper-floor Cafe]",$101-200,"2/F, H8, 8 Hau Fook Street",724,437.0,69.0,3.556917,29728,22.299601000000003,114.174551
Hiroshi 宏,/en/hongkong/r-hiroshi-tsim-sha-tsui-japanese-dessert-r462236/reviews,Tsim Sha Tsui,2008,"[2009, 1014, 1021]","[Japanese, Dessert, Yoshoku]",$101-200,"Shop 502, 5/F, The ONE, 100 Nathan Road",471,369.0,27.0,3.886061,9788,22.299714808,114.172378778
Thai Chef Thais Restaurant 泰廚泰國菜館,/en/hongkong/r-thai-chef-thais-restaurant-mong-kok-thai-curry-r183212/reviews,Mong Kok,2010,"[2004, 1009, 1033, 1072]","[Thai, Seafood, Curry, Skewer]",$101-200,"G/F, 126 Tung Choi Street",462,366.0,19.0,3.6793720000000003,12914,22.3212853722,114.170231
Market Hotpot 鮮入圍煮,/en/hongkong/r-market-hotpot-mong-kok-guangdong-hot-pot-r175710/reviews,Mong Kok,2010,"[1002, 1001]","[Guangdong, Hot Pot]",$201-400,"2/F, Dundas Square, 43H Dundas Street",255,190.0,15.0,3.916033,27267,22.315696799999998,114.17112959999999
Wa Shou Yakiniku 和匠日式燒肉店,/en/hongkong/r-wa-shou-yakiniku-jordan-japanese-skewer-r140194/reviews,Jordan,2028,"[2009, 1025, 1072]","[Japanese, Roast Meat, Skewer]",$201-400,"Shop 3, G/F, Tak Wai Building, 23-27 Cheong Lok Street",431,392.0,9.0,4.097475,9277,22.306728491599998,114.172459245
Cafe Paradise,/en/hongkong/r-cafe-paradise-prince-edward-western-meatless-menu-r446743/reviews,Prince Edward,2029,"[3006, 1014, 1008, 4000, 1073, 1075]","[Italian, Dessert, Coffee Shop, Western, Meatless Menu, All Day Breakfast]",$51-100,"Shop C, G/F, 23 Boundary Street",359,290.0,14.0,3.864264,17702,22.326454100000003,114.1661001
The Cheesecake Factory 芝樂坊餐廳,/en/hongkong/r-the-cheesecake-factory-tsim-sha-tsui-international-all-day-breakfast-r523793/reviews,Tsim Sha Tsui,2008,"[4001, 1035, 6000, 1075, 1203]","[American, Hamburger, International, All Day Breakfast, Cake]",$101-200,"Shop G102, G/F, Gateway Arcade, Harbour City, 25 Canton Road",355,221.0,23.0,3.859467,23115,22.2993359,114.16798
Goobne Chicken,/en/hongkong/r-goobne-chicken-mong-kok-korean-korean-fried-chicken-r463174/reviews,Mong Kok,2010,"[2001, 1085]","[Korean, Korean Fried Chicken]",$101-200,"15/F, King Wah Centre, 628 Nathan Road",387,292.0,15.0,3.8501339999999997,18995,22.317836,114.1699054
Running Chicken 米走雞,/en/hongkong/r-running-chicken-mong-kok-hong-kong-style-chicken-hot-pot-r476804/reviews,Mong Kok,2010,"[1004, 1001, 1074]","[Hong Kong Style, Hot Pot, Chicken Hot Pot]",$101-200,"2/F, The Lamma City, 761 Nathan Road",345,306.0,5.0,3.9780699999999998,10311,22.3247073,114.16804099999999
Sky726,/en/hongkong/r-sky726-mong-kok-international-dessert-r449547/reviews,Mong Kok,2010,"[3010, 1014, 1, 6000, 7]","[French, Dessert, Romantic Dining, International, Special Occasion Dining]",$201-400,"25/F, 724-726 Nathan Road",343,266.0,27.0,3.9149529999999997,26057,22.3211688,114.16916280000001
Ramen Bari-Uma 霸嗎拉麵,/en/hongkong/r-ramen-bari-uma-tsim-sha-tsui-japanese-ramen-r489275/reviews,Tsim Sha Tsui,2008,"[2009, 1005]","[Japanese, Ramen]",$51-100,"G/F, 26 Kimberley Road",424,292.0,28.0,3.755889,15572,22.300458600000002,114.1734699
Ocio,/en/hongkong/r-ocio-mong-kok-international-all-day-breakfast-r136764/reviews,Mong Kok,2010,"[6000, 1014, 1008, 1015, 1075]","[International, Dessert, Coffee Shop, Ice Cream/yogurt, All Day Breakfast]",$101-200,"Shop B, G/F, Legent Court, 33 Yin Chong Street",489,353.0,32.0,3.613085,14035,22.3166243084,114.17273685299999
The Joomak,/en/hongkong/r-the-joomak-tsim-sha-tsui-korean-r458081/reviews,Tsim Sha Tsui,2008,"[2001, 1033]","[Korean, Izakaya]",$101-200,"Shop 34, LCX, 3/F, Ocean Terminal, Harbour City, 3-27 Canton Road",439,322.0,26.0,3.732004,14400,22.294926664600002,114.166874886
Arashiyama Japanese Restaurant 嵐山日本料理,/en/hongkong/r-arashiyama-japanese-restaurant-tsim-sha-tsui-japanese-sushi-sashimi-r187493/reviews,Tsim Sha Tsui,2008,"[2009, 1034, 1072]","[Japanese, Sushi/Sashimi, Skewer]",$201-400,"G/F, 11 Minden Avenue",282,253.0,3.0,4.021897,10315,22.296945,114.17433999999999
Flame Japanese Cuisine 焱丸水產,/en/hongkong/r-flame-japanese-cuisine-tsim-sha-tsui-japanese-seafood-r348654/reviews,Tsim Sha Tsui,2008,"[2009, 1009, 1034]","[Japanese, Seafood, Sushi/Sashimi]",$201-400,"Shop 5&6, G/F, Wah Fung Building, 23 Minden Avenue",381,314.0,14.0,3.977348,17108,22.296862,114.17492800000001
Thai on 5 Seafood Grill and Bar 泰燒遙,/en/hongkong/r-thai-on-5-seafood-grill-and-bar-tsim-sha-tsui-thai-seafood-r181025/reviews,Tsim Sha Tsui,2008,"[2004, 1009, 8, 1072]","[Thai, Seafood, Private Party, Skewer]",$201-400,"5/F, 1 Knutsford Terrace",353,299.0,8.0,3.847337,14133,22.3011648885,114.173132479
Amour Corner,/en/hongkong/r-amour-corner-mong-kok-western-r138892/reviews,Mong Kok,2010,"[4000, 1003]","[Western, Steak House]",$101-200,"G/F, 106 Portland Street",368,282.0,27.0,3.7619309999999997,11387,22.31486,114.16976399999999
Daieiki Japanese Restaurant 大瀛喜日本料理,/en/hongkong/r-daieiki-japanese-restaurant-mong-kok-japanese-all-you-can-eat-r173165/reviews,Mong Kok,2010,"[2009, 1076]","[Japanese, All-you-can-eat]",$201-400,"5/F, MPM Plaza, 11 Nelson Street",404,331.0,10.0,3.883202,17522,22.318378087600003,114.16897170200001
Dazzling Cafe,/en/hongkong/r-dazzling-cafe-tsim-sha-tsui-taiwan-r173559/reviews,Tsim Sha Tsui,2008,[1009],[Taiwan],$101-200,"Shop 22, L3, The ONE, 100 Nathan Road",555,327.0,42.0,3.68222,23437,22.299714808,114.172378778
The Stadium,/en/hongkong/r-the-stadium-kwun-tong-american-r484511/reviews,Kwun Tong,2026,"[4001, 1024]","[American, Upper-floor Cafe]",$101-200,"4/F, The Wave, 4 Hing Yip Street",322,248.0,9.0,3.915833,12695,22.3096739848,114.22457993
Happyland 樂園,/en/hongkong/r-happyland-tsim-sha-tsui-western-r58604/reviews,Tsim Sha Tsui,2008,"[4000, 1024, 6, 1028, 8]","[Western, Upper-floor Cafe, Group Dining, BBQ Ground, Private Party]",$101-200,"Shop 205-06, 2/F, Universal Commercial Building, 65-69 Peking Road",414,365.0,8.0,3.93634,7150,22.296193,114.171609
Shine,/en/hongkong/r-shine-tsim-sha-tsui-western-wine-r513390/reviews,Tsim Sha Tsui,2008,"[4000, 1008, 1003, 6000, 1009]","[Western, Wine, Steak House, International, Seafood]",$201-400,"6/F, Prince Tower, 12A Peking Road",421,373.0,12.0,3.92736,12394,22.296540300000004,114.17128340000001
Hungry Bird 肚餓了串燒烤焗專門店,/en/hongkong/r-hungry-bird-tsim-sha-tsui-hong-kong-style-seafood-r174273/reviews,Tsim Sha Tsui,2008,"[1004, 1009, 11, 1072]","[Hong Kong Style, Seafood, Casual Drink, Skewer]",$101-200,"6/F, 17-19 Ashley Road",427,337.0,43.0,3.702804,15322,22.2969766,114.17030849999999
Cheng Banzhang Taiwan Delicacy 程班長台灣美食,/en/hongkong/r-cheng-banzhang-taiwan-delicacy-lai-chi-kok-taiwan-noodles-rice-noodles-r138997/reviews,Lai Chi Kok,2016,"[1009, 1010, 1039]","[Taiwan, Noodles/Rice Noodles, Wonton/Dumpling]",$51-100,"Flat 02, 1/F, Elite Industrial Centre, 883 Cheung Sha Wan Road",410,252.0,24.0,3.588174,18817,22.3366644136,114.147439599
Dabyida Restaurant and Bar,/en/hongkong/r-dabyida-restaurant-and-bar-tsim-sha-tsui-italian-seafood-r127192/reviews,Tsim Sha Tsui,2008,"[3006, 1009, 1003, 1022]","[Italian, Seafood, Steak House, Pizza]",$201-400,"Shop G5-6 G/F, 8 Minden Avenue",425,330.0,13.0,3.827083,12068,22.2967873037,114.17403638399999
Chateh 百樂小館,/en/hongkong/r-chateh-tsim-sha-tsui-chiu-chow-r185336/reviews,Tsim Sha Tsui,2008,"[1001, 1005]","[Chiu Chow, Dim Sum Restaurant]",$201-400,"Shop 405, L4, FoodLoft, Mira Place One, 132 Nathan Road",326,304.0,5.0,4.015873,7515,22.3008446,114.17220549999999
Deluxe Daikiya Japanese Restaurant 極尚大喜屋日本料理,/en/hongkong/r-deluxe-daikiya-japanese-restaurant-tsim-sha-tsui-japanese-all-you-can-eat-r166138/reviews,Tsim Sha Tsui,2008,"[2009, 1076, 1083]","[Japanese, All-you-can-eat, Food Wise Eateries]",$201-400,"Shop 102, 1/F, Albion Plaza, 2-6 Granville Road",325,242.0,11.0,3.976237,27591,22.299381,114.172676
Amico 1890,/en/hongkong/r-amico-1890-mong-kok-western-pizza-r445102/reviews,Mong Kok,2010,"[4000, 1022]","[Western, Pizza]",$101-200,"G/F, 24 Sai Yee Street",352,265.0,13.0,3.793859,12154,22.3176501081,114.172254001
壹火鍋,/en/hongkong/r-%E5%A3%B9%E7%81%AB%E9%8D%8B-mong-kok-hong-kong-style-chicken-hot-pot-r193847/reviews,Mong Kok,2010,"[1004, 1001, 1074, 1204]","[Hong Kong Style, Hot Pot, Chicken Hot Pot, Steam Hotpot]",$201-400,"16/F, CTMA Centre, 1 Sai Yeung Choi Street",242,201.0,5.0,3.919347,12064,22.315825324099997,114.170584381
Plato,/en/hongkong/r-plato-yau-ma-tei-western-r140768/reviews,Yau Ma Tei,2011,"[4000, 1008, 11]","[Western, Coffee Shop, Casual Drink]",$101-200,"Shop D, G/F, Man Hoo Court, 448-452A Nathan Road",345,291.0,20.0,3.855775,10594,22.3102318,114.1714477
Cambo ขุนทอง,/en/hongkong/r-cambo-%E0%B8%82%E0%B8%B8%E0%B8%99%E0%B8%97%E0%B8%AD%E0%B8%87-tsim-sha-tsui-thai-r47405/reviews,Tsim Sha Tsui,2008,"[2002, 2004]","[Vietnamese, Thai]",$101-200,"Shop L403, 4/F, The ONE, 100 Nathan Road",514,316.0,66.0,3.567078,15150,22.2999555241,114.172636271
Doux,/en/hongkong/r-doux-mong-kok-international-ice-cream-yogurt-r454318/reviews,Mong Kok,2010,"[6000, 1014, 1010, 1015]","[International, Dessert, Bar, Ice Cream/yogurt]",$51-100,"18/F, 726 Nathan Road",302,226.0,10.0,3.854166,12380,22.3211688,114.16916280000001
Day and Nite by Master Kama,/en/hongkong/r-day-and-nite-by-master-kama-mong-kok-japanese-seafood-r503371/reviews,Mong Kok,2010,"[2009, 1009, 1021, 3006, 1024]","[Japanese, Seafood, Yoshoku, Italian, Upper-floor Cafe]",$51-100,"1 & 2/F, 50 Shan Tung Street",348,282.0,18.0,3.795845,14756,22.3177582252,114.17130097799999
Banmoto Japanese All You Can Eat Restaurant 番本日式放題,/en/hongkong/r-banmoto-japanese-all-you-can-eat-restaurant-mong-kok-japanese-all-you-can-eat-r125748/reviews,Mong Kok,2010,"[2009, 1076, 6]","[Japanese, All-you-can-eat, Group Dining]",$201-400,"3/F, 168 Sai Yeung Choi Street South",584,379.0,56.0,3.583614,20737,22.320757999999998,114.169894
Lady M,/en/hongkong/r-lady-m-tsim-sha-tsui-western-bakery-r452485/reviews,Tsim Sha Tsui,2008,"[4000, 1003, 1008]","[Western, Bakery, Coffee Shop]",$51-100,"Shop OT215K, 2/F, Ocean Terminal, Harbour City, 3-27 Canton Road",320,209.0,11.0,3.707605,16418,22.2948671039,114.16683197
The Place,/en/hongkong/r-the-place-mong-kok-international-seafood-r12121/reviews,Mong Kok,2010,"[6000, 1009, 1011, 6, 1032, 1083]","[International, Seafood, Hotel Restaurant, Group Dining, Buffet, Food Wise Eateries]",$401-800,"Level L, Cordis, Hong Kong at Langham Place, 555 Shanghai Street",405,200.0,67.0,3.4876669999999996,40151,22.3181503059,114.168140888
LM Cafe,/en/hongkong/r-lm-cafe-kwun-tong-western-r466089/reviews,Kwun Tong,2026,"[4000, 1008]","[Western, Coffee Shop]",$51-100,"Shop M, G/F, COS Centre, 56 Tsun Yip Street",313,253.0,18.0,3.790582,5885,22.311312,114.22265320000001
PAN de PAIN Pancakes & Sweets,/en/hongkong/r-pan-de-pain-pancakes-sweets-tsim-sha-tsui-japanese-dessert-r482866/reviews,Tsim Sha Tsui,2008,"[2009, 1014]","[Japanese, Dessert]",$51-100,"Shop B111B, B1/F, K11 Art Mall, 18 Hanoi Road",398,196.0,34.0,3.581958,17507,22.2975781249,114.173320234
Yadllie Plate,/en/hongkong/r-yadllie-plate-mong-kok-korean-korean-fried-chicken-r499690/reviews,Mong Kok,2010,"[2001, 1085]","[Korean, Korean Fried Chicken]",$101-200,"11/F, CTMA Centre, 1 Sai Yeung Choi Street",371,292.0,17.0,3.891456,12461,22.315788,114.17058600000001
Manhattan Grill & Bar,/en/hongkong/r-manhattan-grill-bar-kwun-tong-american-r134545/reviews,Kwun Tong,2026,"[4001, 1010, 8]","[American, Bar, Private Party]",$201-400,"Shop 303, 3/F, One Pacific Centre, 414 Kwun Tong Road",366,276.0,32.0,3.752064,8993,22.312769043000003,114.224656199
Aroy Khao Man Gai 阿來泰式地道風味,/en/hongkong/r-aroy-khao-man-gai-mong-kok-thai-r472513/reviews,Mong Kok,2010,[2004],[Thai],$51-100,"G/F, 97 Tung Choi Street",275,238.0,13.0,3.827083,9169,22.3197361,114.1704503
Lo Dim 老點點心竹筒飯,/en/hongkong/r-lo-dim-mong-kok-guangdong-dim-sum-r124481/reviews,Mong Kok,2010,"[1002, 1036, 1001, 1039, 1041]","[Guangdong, Dim Sum, Stir-Fry, Wonton/Dumpling, Chinese Buns]",$51-100,"Shop A, G/F, Lisa House, 12-14A Yim Po Fong Street",356,240.0,15.0,3.6916160000000002,20110,22.319157999999998,114.172734
The Market,/en/hongkong/r-the-market-tsim-sha-tsui-international-buffet-r51055/reviews,Tsim Sha Tsui,2008,"[6000, 1032, 1011]","[International, Buffet, Hotel Restaurant]",$401-800,"2/F, Hotel ICON, 17 Science Museum Road",393,268.0,30.0,3.864839,28197,22.3005420093,114.179647565
Imperial 御膳,/en/hongkong/r-imperial-kwun-tong-guangdong-seafood-r136302/reviews,Kwun Tong,2026,"[1002, 1009, 1023, 1016]","[Guangdong, Seafood, Private Kitchen, Fine Dried Seafood]",$201-400,"Flat F, 12/F, King Win Factory Building, 65-67 King Yip Street",365,285.0,24.0,3.866104,7949,22.309299,114.226647
Running BBQ Running 燒,/en/hongkong/r-running-bbq-mong-kok-korean-korean-bbq-r467206/reviews,Mong Kok,2010,"[2001, 1032, 1086]","[Korean, Buffet, Korean BBQ]",$201-400,"9/F, 726 Nathan Road",281,253.0,5.0,4.023529,11094,22.3211688,114.16916280000001
ATUM Restaurant,/en/hongkong/r-atum-restaurant-tsim-sha-tsui-western-seafood-r470070/reviews,Tsim Sha Tsui,2008,"[4000, 1009, 1006]","[Western, Seafood, Western Restaurant]",$201-400,"Shop 101B, 1/F, K11 Art Mall, 18 Hanoi Road",281,237.0,11.0,3.946167,14356,22.2977383621,114.173947809
Samurai Ramen 武士拉麵,/en/hongkong/r-samurai-ramen-tsim-sha-tsui-japanese-ramen-r177490/reviews,Tsim Sha Tsui,2008,"[2009, 1005]","[Japanese, Ramen]",$51-100,"Shop D, G/F, Block B, Austin Mansion, 15 Austin Avenue",307,243.0,9.0,3.701062,8748,22.3021475928,114.175338596
Nathan Left 彌敦左岸,/en/hongkong/r-nathan-left-tsim-sha-tsui-western-seafood-r463855/reviews,Tsim Sha Tsui,2008,"[4000, 1009, 1010, 1022]","[Western, Seafood, Bar, Pizza]",$201-400,"B1/F, Hart Avenue Plaza, 5-9 Hart Avenue",293,270.0,1.0,4.083044,6246,22.297925399999997,114.17420039999999
Daimanki Japanese Restaurant 大滿喜日本料理,/en/hongkong/r-daimanki-japanese-restaurant-mong-kok-japanese-all-you-can-eat-r120357/reviews,Mong Kok,2010,"[2009, 1076]","[Japanese, All-you-can-eat]",$201-400,"8/F, Chong Hing Square, 593-601 Nathan Road",383,310.0,21.0,3.806043,16013,22.3162891,114.1697619
Coffee Alley 咖啡弄,/en/hongkong/r-coffee-alley-tsim-sha-tsui-western-r166483/reviews,Tsim Sha Tsui,2008,"[4000, 1008]","[Western, Coffee Shop]",$101-200,"1/F., Hon Hing Mansion, 38 Hankow Road",442,261.0,20.0,3.6579,14679,22.297723094299997,114.17120263
Tsukiji Banmoto Japanese All You Can Eat Restaurant 築地番本日式放題,/en/hongkong/r-tsukiji-banmoto-japanese-all-you-can-eat-restaurant-mong-kok-japanese-all-you-can-eat-r438258/reviews,Mong Kok,2010,"[2009, 1001, 1009, 1076]","[Japanese, Hot Pot, Seafood, All-you-can-eat]",$101-200,"Rm B, 1/F, Deli2, Witty Commercial Building, 1A-1J, Tung Choi St, Mong Kok, Kln",389,280.0,26.0,3.624048,15012,22.3162377,114.1710196
8鍋臭臭鍋,/en/hongkong/r-8%E9%8D%8B%E8%87%AD%E8%87%AD%E9%8D%8B-tsim-sha-tsui-taiwan-hot-pot-r500548/reviews,Tsim Sha Tsui,2008,"[1009, 1001]","[Taiwan, Hot Pot]",$101-200,"G/F, 77 Kimberley Road",268,201.0,10.0,3.811302,13680,22.301813,114.17515149999998
The Drunken Pot 酒鍋,/en/hongkong/r-the-drunken-pot-tsim-sha-tsui-guangdong-hot-pot-r480773/reviews,Tsim Sha Tsui,2008,"[1002, 1001, 1009]","[Guangdong, Hot Pot, Seafood]",$201-400,"Shop 1, 2/F, 8 Observatory Road",274,221.0,7.0,4.108433,15165,22.301,114.17576000000001
Joyful Dessert House,/en/hongkong/r-joyful-dessert-house-mong-kok-western-ice-cream-yogurt-r171276/reviews,Mong Kok,2010,"[4000, 1014, 1008, 1015]","[Western, Dessert, Coffee Shop, Ice Cream/yogurt]",Below $50,"Shop 2&3, G/F, Ngai Hing Mansion, 74 Hak Po Street",343,256.0,27.0,3.6774769999999997,10508,22.3177011929,114.172746241
Candies Foodies,/en/hongkong/r-candies-foodies-tsim-sha-tsui-western-r498781/reviews,Tsim Sha Tsui,2008,"[4000, 1008]","[Western, Coffee Shop]",$101-200,"M/F, Shop 1B & 2B, Tsim Sha Tsui Mansion, 36-50 Lock Road",306,267.0,6.0,3.930392,5965,22.2977056,114.171823
Aidan Korean Dessert Cafe 小火焰韓式咖啡餐廳,/en/hongkong/r-aidan-korean-dessert-cafe-kwun-tong-korean-dessert-r487026/reviews,Kwun Tong,2026,"[2001, 1014, 1008]","[Korean, Dessert, Coffee Shop]",$101-200,"Shop 1, 1/F, Kwun Tong View, 410 Kwun Tong Rd",287,210.0,6.0,3.827978,10331,22.3128705,114.22430159999999
Plato Cafe & Bistro,/en/hongkong/r-plato-cafe-bistro-yau-ma-tei-western-all-day-breakfast-r500317/reviews,Yau Ma Tei,2011,"[4000, 1014, 1008, 8, 1075, 1024]","[Western, Dessert, Coffee Shop, Private Party, All Day Breakfast, Upper-floor Cafe]",$101-200,"2/F, 483-485 Nathan Road",248,203.0,10.0,3.912552,14296,22.3113228,114.1707712
OPPA Korean Restaurant OPPA韓國燒肉店,/en/hongkong/r-oppa-korean-restaurant-mong-kok-korean-korean-bbq-r173172/reviews,Mong Kok,2010,"[2001, 1009, 1025, 1086]","[Korean, Seafood, Roast Meat, Korean BBQ]",$101-200,"G/F, Kin Wong Manison,117 Sai Yee Street",245,207.0,6.0,3.9215760000000004,8306,22.320445199999998,114.1712922
KEBABEER 串酒里,/en/hongkong/r-kebabeer-tsim-sha-tsui-japanese-skewer-r470000/reviews,Tsim Sha Tsui,2008,"[2009, 1025, 1010, 1072, 1035]","[Japanese, Roast Meat, Bar, Skewer, Skewer]",$101-200,"Shop B, G/F,  6 Hillwood Road",266,250.0,4.0,3.950943,6271,22.3025942743,114.17244315100001
Australia Dairy Company 澳洲牛奶公司,/en/hongkong/r-australia-dairy-company-jordan-hong-kong-style-dessert-r90/reviews,Jordan,2028,"[1004, 1014, 1009]","[Hong Kong Style, Dessert, Tea Restaurant]",Below $50,"G/F, 47-49 Parkes Street",2574,1572.0,267.0,3.501682,33429,22.304584,114.170592
Fisher & Farmer 漁牧,/en/hongkong/r-fisher-farmer-tsim-sha-tsui-sichuan-chicken-hot-pot-r453334/reviews,Tsim Sha Tsui,2008,"[1008, 1001, 1083, 1074]","[Sichuan, Hot Pot, Food Wise Eateries, Chicken Hot Pot]",$101-200,"2/F, Carnarvon Plaza, 20 Carnarvon Road‎",286,214.0,14.0,3.7177,14902,22.299236147,114.17326327100001
Amina Modern European,/en/hongkong/r-amina-modern-european-tsim-sha-tsui-french-fine-dining-r48433/reviews,Tsim Sha Tsui,2008,"[3006, 1200, 1023, 3010, 1032]","[Italian, Fine Dining, Private Kitchen, French, Oyster Bar]",$401-800,"Shop A, 5/F, Long Kee Mansion, 54-56 Cameron Road",280,238.0,13.0,4.176562,8825,22.299138,114.175219
韓舍,/en/hongkong/r-%E9%9F%93%E8%88%8D-mong-kok-korean-buffet-r117732/reviews,Mong Kok,2010,"[2001, 1025, 1032]","[Korean, Roast Meat, Buffet]",$101-200,"9/F, Chong Hing Square, 593-601 Nathan Road",421,284.0,53.0,3.537984,14591,22.3163204299,114.169728756
新南苑私房菜火鍋鷄煲,/en/hongkong/r-%E6%96%B0%E5%8D%97%E8%8B%91%E7%A7%81%E6%88%BF%E8%8F%9C%E7%81%AB%E9%8D%8B%E9%B7%84%E7%85%B2-mong-kok-hong-kong-style-chicken-hot-pot-r478712/reviews,Mong Kok,2010,"[1004, 1001, 1008, 1074]","[Hong Kong Style, Hot Pot, Sichuan, Chicken Hot Pot]",$201-400,"3/F, Hua Chiao Commerical Centre, 678 Nathan Road",270,235.0,6.0,4.060687000000001,8721,22.31982,114.16944
CHOO CHOO,/en/hongkong/r-choo-choo-cheung-sha-wan-western-salad-r465956/reviews,Cheung Sha Wan,2013,"[4000, 1014, 1010, 1022, 1081]","[Western, Dessert, Bar, Pizza, Salad]",$101-200,"Shop 1, G/F, Cheung Fai Building, 364-368 Shun Ning Road",237,209.0,6.0,4.094782,9661,22.3405214528,114.154682625
Playa de Papagayo,/en/hongkong/r-playa-de-papagayo-tsim-sha-tsui-spanish-r450499/reviews,Tsim Sha Tsui,2008,"[3011, 1006, 1010]","[Spanish, Western Restaurant, Bar]",$101-200,"Shop N3, G/F, Podium Plaza, 5 Hanoi Road",263,226.0,9.0,3.771626,12294,22.297703100000003,114.1742544
Kobe Fusion Restaurant 神戶屋日韓放題,/en/hongkong/r-kobe-fusion-restaurant-mong-kok-japanese-all-you-can-eat-r183240/reviews,Mong Kok,2010,"[2001, 1034, 2009, 1076]","[Korean, Sushi/Sashimi, Japanese, All-you-can-eat]",$201-400,"8/F, CTMA Centre, 1 Sai Yeung Choi Street",438,365.0,20.0,3.830174,8494,22.3157847,114.1705723
Channel 3 Tapas Bar & Restaurant,/en/hongkong/r-channel-3-tapas-bar-restaurant-prince-edward-spanish-r467157/reviews,Prince Edward,2029,"[3011, 1010]","[Spanish, Bar]",$101-200,"G/F, 228 Tung Choi Street",274,243.0,7.0,3.990671,4016,22.325055,114.16955
Golden Captain Restaurant 金船長餐廳,/en/hongkong/r-golden-captain-restaurant-tai-kok-tsui-italian-pizza-r17994/reviews,Tai Kok Tsui,2005,"[3006, 1022, 1003, 1035]","[Italian, Pizza, Steak House, Hamburger]",$101-200,"Unit 3A, 55 Tai Tsun Street",616,449.0,46.0,3.787904,10017,22.321882106100002,114.160711169
TONO DAIKIYA Japanese Restaurant 殿 大喜屋日本料理,/en/hongkong/r-tono-daikiya-japanese-restaurant-tsim-sha-tsui-japanese-all-you-can-eat-r464818/reviews,Tsim Sha Tsui,2008,"[2009, 1034, 1083, 1072, 1076]","[Japanese, Sushi/Sashimi, Food Wise Eateries, Skewer, All-you-can-eat]",$201-400,"1/F, 26 Kimberley Road",312,208.0,16.0,3.978919,18610,22.300339904,114.173353955
DaBen Ei Japanese Restaurant 大本瀛日式放題,/en/hongkong/r-daben-ei-japanese-restaurant-mong-kok-japanese-all-you-can-eat-r489578/reviews,Mong Kok,2010,"[2009, 1076]","[Japanese, All-you-can-eat]",$201-400,"10/F, CTMA Centre, 1 Sai Yeung Choi Street",368,329.0,10.0,3.9087980000000004,4529,22.315788,114.17058600000001
Deer Kitchen,/en/hongkong/r-deer-kitchen-kwun-tong-western-salad-r481449/reviews,Kwun Tong,2026,"[3006, 1081, 1006, 4000]","[Italian, Salad, Western Restaurant, Western]",$101-200,"Room B3 ,1/F, Good Year Industrial Building, 119-121 How Ming Street",233,201.0,7.0,3.990611,5941,22.311242,114.22493
Let's Jam 一起果醬,/en/hongkong/r-lets-jam-tsim-sha-tsui-western-all-day-breakfast-r452856/reviews,Tsim Sha Tsui,2008,"[4000, 1014, 1008, 1015, 1075]","[Western, Dessert, Coffee Shop, Ice Cream/yogurt, All Day Breakfast]",$101-200,"Shop D, 15-17 Pine Tree Hill Road",270,226.0,11.0,3.834615,8004,22.3031505,114.17335049999998
Tenohira Sushi 掌壽司,/en/hongkong/r-tenohira-sushi-kwun-tong-japanese-sushi-sashimi-r161828/reviews,Kwun Tong,2026,"[2009, 1034]","[Japanese, Sushi/Sashimi]",$201-400,"Flat U, 5/F, Block 3, Camel Paint Buildings, 60 Hoi Yuen Street",261,205.0,18.0,3.9011949999999995,6306,22.310121,114.22506499999999
Japanese Wagyu Yakiniku Pure 和牛燒肉‧純,/en/hongkong/r-japanese-wagyu-yakiniku-pure-tsim-sha-tsui-japanese-roast-meat-r184497/reviews,Tsim Sha Tsui,2008,"[2009, 1025]","[Japanese, Roast Meat]",$201-400,"Shop 3,1/F, Hilton Towers, 96 Granville Road",216,189.0,5.0,4.143382,11873,22.299498999999997,114.17723799999999
Chuan Shao 川燒,/en/hongkong/r-chuan-shao-jordan-japanese-skewer-r148570/reviews,Jordan,2028,"[1008, 1072, 1015, 2009, 1035]","[Sichuan, Skewer, Snack Shop & Deli, Japanese, Skewer]",$101-200,"G/F., 17 Man Ying Street Ferry Point",303,276.0,5.0,3.8384480000000005,9521,22.307080399999997,114.16675359999998
Urban Coffee Roaster,/en/hongkong/r-urban-coffee-roaster-tsim-sha-tsui-western-all-day-breakfast-r471401/reviews,Tsim Sha Tsui,2008,"[4000, 1075, 1008]","[Western, All Day Breakfast, Coffee Shop]",$51-100,"Shop 44, G/F, Mirador Mansion, 7 Bristol Avenue",224,206.0,4.0,3.896846,7986,22.297301,114.1726061
Pom's Kitchen & Deli,/en/hongkong/r-poms-kitchen-deli-jordan-western-r495683/reviews,Jordan,2028,"[4000, 1006, 8, 1008]","[Western, Western Restaurant, Private Party, Coffee Shop]",$101-200,"G/F, 7A-7B Tak Hing Street",248,187.0,16.0,3.853448,11661,22.3046533,114.17231399999999
EAT ME Bar & Restaurant,/en/hongkong/r-eat-me-bar-restaurant-mong-kok-international-r520332/reviews,Mong Kok,2010,"[6000, 1008, 1024]","[International, Coffee Shop, Upper-floor Cafe]",$51-100,"5/F, Grand Place, 560 Nathan Road",442,345.0,23.0,3.7922239999999996,10280,22.3144695,114.170629
Lee Moon Yuen Korea Restaurant 梨滿園韓國料理,/en/hongkong/r-lee-moon-yuen-korea-restaurant-mong-kok-korean-korean-bbq-r437295/reviews,Mong Kok,2010,"[2001, 1086]","[Korean, Korean BBQ]",$101-200,"1/F , Witty Commercial Building Deli2, 1A-1L Tung Choi Street",261,231.0,5.0,3.9845839999999995,5614,22.3162955343,114.17105712
良記餐廳(老鳳冰室),/en/hongkong/r-%E8%89%AF%E8%A8%98%E9%A4%90%E5%BB%B3-%E8%80%81%E9%B3%B3%E5%86%B0%E5%AE%A4-sham-shui-po-hong-kong-style-seafood-r447426/reviews,Sham Shui Po,2019,"[1004, 1009, 1009]","[Hong Kong Style, Seafood, Tea Restaurant]",Below $50,"G/F, 216 Ki Lung Street",257,194.0,10.0,3.804878,10686,22.328720999999998,114.16236
Gozen EDO Japanese Restaurant 御前大江戶日式料理,/en/hongkong/r-gozen-edo-japanese-restaurant-kwun-tong-japanese-all-you-can-eat-r470914/reviews,Kwun Tong,2026,"[2009, 1076]","[Japanese, All-you-can-eat]",$201-400,"8/F, One Pacific Centre, 414 Kwun Tong Road, Kwun Tong",287,194.0,27.0,3.833076,22465,22.3125562,114.22452759999999
Lazy Pot 吞POT 雞煲火鍋.住家菜,/en/hongkong/r-lazy-pot-mong-kok-hong-kong-style-chicken-hot-pot-r490706/reviews,Mong Kok,2010,"[1004, 1001, 1001, 1074]","[Hong Kong Style, Hot Pot, Stir-Fry, Chicken Hot Pot]",$101-200,"23/F, 726 Nathan Road",220,200.0,1.0,4.041784,7137,22.3211688,114.16916280000001
WOFT,/en/hongkong/r-woft-mong-kok-western-r461660/reviews,Mong Kok,2010,[4000],[Western],$101-200,"G/F, 7-8D Yim Po Street",230,192.0,6.0,3.9697769999999997,15376,22.3179528,114.17325490000002
Boat Dweller Steam Hot Pot Specialist 正宗水上人氣鍋專門店,/en/hongkong/r-boat-dweller-steam-hot-pot-specialist-mong-kok-guangdong-hot-pot-r463027/reviews,Mong Kok,2010,"[1002, 1001, 1009, 1018, 1204]","[Guangdong, Hot Pot, Seafood, Congee, Steam Hotpot]",$201-400,"G/F, 196 Portland Street",260,223.0,5.0,3.989837,8450,22.316999999999997,114.1693531
Korean Inn Restaurant 高麗軒韓國料理,/en/hongkong/r-korean-inn-restaurant-tsim-sha-tsui-korean-korean-bbq-r74018/reviews,Tsim Sha Tsui,2008,"[2001, 1025, 1032, 1086]","[Korean, Roast Meat, Buffet, Korean BBQ]",$201-400,"LG/F, 46-48 Kimberley Road,",294,254.0,9.0,3.944265,6723,22.3008756,114.17458429999999
